name	country	code	lat	lng
25 de Mayo	Argentina	ARG	-37.80003253300	-67.68329533050
28 de Noviembre	Argentina	ARG	-51.65003985730	-72.30001611500
Aalborg	Denmark	DNK	57.03371380530	9.91659338241
Aarau	Switzerland	CHE	47.39000410020	8.03400361048
Aarhus	Denmark	DNK	56.15720399890	10.21068395860
Abadan	Iran	IRN	30.33074424130	48.27967809940
Abadla	Algeria	DZA	31.01708477680	-2.73330631653
Abaetetuba	Brazil	BRA	-1.72453069437	-48.88488014090
Abai	Paraguay	PRY	-26.02958819700	-55.94000695960
Abakan	Russia	RUS	53.70368450840	91.44500199280
Abancay	Peru	PER	-13.63959511430	-72.89000594250
Aba	Nigeria	NGA	5.10039796846	7.34998001977
Abau	Papua New Guinea	PNG	-10.04260536820	148.56502966200
Abaza	Russia	RUS	52.66901898100	90.09536861060
Abbotsford	Canada	CAN	49.05037680980	-122.29998742900
Abbottabad	Pakistan	PAK	34.14950339660	73.19950069060
Abeche	Chad	TCD	13.83999371230	20.82998408880
Abengourou	Ivory Coast	CIV	6.73037599581	-3.49000431458
Abeokuta	Nigeria	NGA	7.16042726534	3.35001745465
Aberdeen	United Kingdom	GBR	57.17039796870	-2.07998702128
Aberdeen	United States	USA	45.46511761380	-98.48640222350
Aberdeen	United States	USA	46.97489625960	-123.81439111500
Abha	Saudi Arabia	SAU	18.23008750300	42.50013423540
Abidjan	Ivory Coast	CIV	5.31999696749	-4.04004825989
Abilene	United States	USA	32.44862530420	-99.73278609390
Aboa Station	Indeterminate	ATA	-75.04959348690	-13.41671106100
Abohar	India	IND	30.12042116190	74.29002844130
Aboisso	Ivory Coast	CIV	5.46669905207	-3.20000353009
Abomey	Benin	BEN	7.19039959607	1.98999710960
Abong Mbang	Cameroon	CMR	3.98369610485	13.18331904970
Abra Pampa	Argentina	ARG	-22.71666379920	-65.69997969730
Abu Dhabi	United Arab Emirates	ARE	24.46668357240	54.36659338260
Abuja	Nigeria	NGA	9.08333314914	7.53332800155
Abu Kamal	Syria	SYR	34.45041526190	40.91862870150
Abuna	Brazil	BRA	-9.69539141962	-65.35971622890
Acapulco	Mexico	MEX	16.84999086400	-99.91597904640
Acarau	Brazil	BRA	-2.88960528678	-40.11999068350
Acarigua	Venezuela	VEN	9.58038291314	-69.20002445640
Acatlan	Mexico	MEX	18.19996014300	-98.04999475280
Accra	Ghana	GHA	5.55003460583	-0.21671574035
Achacachi	Bolivia	BOL	-16.08332192090	-68.66656864590
Achinsk	Russia	RUS	56.26998781240	90.49999507540
Acu	Brazil	BRA	-5.57962196973	-36.91005741530
Adana	Turkey	TUR	36.99498862610	35.32000402700
Adapazari	Turkey	TUR	40.79997601220	30.41503210320
Ad Dakhla	Morocco	MAR	23.71405588260	-15.93681086560
Ad Damman	Saudi Arabia	SAU	26.42819175110	50.09967036830
Addis Ababa	Ethiopia	ETH	9.03331036268	38.70000443400
Ad Diwaniyah	Iraq	IRQ	31.98893760070	44.92396561560
Adelaide	Australia	AUS	-34.93498777390	138.60000484100
Adelaide River	Australia	AUS	-13.24954140340	131.09999751700
Aden	Yemen	YEM	12.77972251280	45.00949011110
Adigrat	Ethiopia	ETH	14.28043194470	39.46998327510
Adi Ugri	Eritrea	ERI	14.88597637830	38.81632808310
Adiyaman	Turkey	TUR	37.77039349270	38.27992671590
Adjumani	Uganda	UGA	3.36138890000	31.80972220000
Ad Nabk	Syria	SYR	34.01703086250	36.73330277380
Ado Ekiti	Nigeria	NGA	7.63037274061	5.21998083357
Adrar	Algeria	DZA	27.86999005030	-0.28996708312
Afyon	Turkey	TUR	38.75038535470	30.55001094430
Agadez	Niger	NER	16.99587343240	7.98280960962
Agadir	Morocco	MAR	30.43998821920	-9.62004358055
Agana	United States	USA	13.47001629530	144.75001704800
Agapa	Russia	RUS	71.45037904780	89.24999385470
Agartala	India	IND	23.83540427550	91.27999914450
Agboville	Ivory Coast	CIV	5.94034669893	-4.28003361146
Agdam	Azerbaijan	AZE	40.90527780000	45.55638890000
Agen	French Republic	FRA	44.20041444810	0.63333573264
Aginskoye	Russia	RUS	51.10306805330	114.52281815500
Agordat	Eritrea	ERI	15.54903668110	37.88666906610
Agra	India	IND	27.17042034810	78.01502071020
Agrinio	Greece	GRC	38.62176271470	21.40772660190
Agri	Turkey	TUR	39.71983522450	43.05131506220
Agua Prieta	Mexico	MEX	31.32233746240	-109.56303878000
Aguascalientes	Mexico	MEX	21.87945992410	-102.29041346900
Aguelhok	Mali	MLI	19.45487062480	0.85637121441
Ahar	Iran	IRN	38.48290814110	47.06290482460
Ahmedabad	India	IND	23.03005291640	72.58000362030
Ahmednagar	India	IND	19.11042136530	74.75000036510
Ahuachapan	El Salvador	SLV	13.91900398970	-89.84500154670
Ahvaz	Iran	IRN	31.27998862610	48.72001297890
Aigua	Uruguay	URY	-34.19999387740	-54.75000207680
Aiken	United States	USA	33.54946250310	-81.72060388360
Aiquile	Bolivia	BOL	-18.18954994830	-65.18001143560
Aix-en-Provence	French Republic	FRA	43.51999086410	5.44999263370
Aizawl	India	IND	23.71039898580	92.72001460670
Ajaccio	French Republic	FRA	41.92706483870	8.72829382186
Ajdabiya	Libya	LBY	30.76999391580	20.21999548210
Ajmer	India	IND	26.44999920550	74.63998124070
Aketi	Congo (Kinshasa)	COD	2.74046449677	23.77998490270
Akhtubinsk	Russia	RUS	48.27871848460	46.16869584020
Akita	Japan	JPN	39.70999086410	140.08999141400
Akjoujt	Mauritania	MRT	19.74699905990	-14.39099948180
Akola	India	IND	20.70998781230	77.01001745490
Akron	United States	USA	41.07039878240	-81.51999597340
Aksu	China	CHN	41.15000632640	80.25002640680
Aksum	Ethiopia	ETH	14.13041526180	38.72000321330
Akure	Nigeria	NGA	7.25039593396	5.19998205427
Akureyi	Iceland	ISL	65.66657187820	-18.10001692860
Alagoinhas	Brazil	BRA	-12.13999672560	-38.42999048010
Al Ahmadi	Kuwait	KWT	29.07694480290	48.08377274450
Alajuela	Costa Rica	CRI	10.02002016090	-84.23003727390
Al Amarah	Iraq	IRQ	31.84160809230	47.15116817100
Alamogordo	United States	USA	32.89947633770	-105.95971867000
Alapayevsk	Russia	RUS	57.84650657060	61.69152095420
Alappuzha	India	IND	9.50041363417	76.37000484100
Al Aqabah	Jordan	JOR	29.52699485170	35.07769323600
Alatyr	Russia	RUS	54.85035870270	46.59998734410
Alausi	Ecuador	ECU	-2.18995806998	-78.84997806980
Alayat Samail	Oman	OMN	23.30318869930	57.97820755900
Al Ayn	United Arab Emirates	ARE	24.23047060040	55.73999792360
Albacete	Kingdom of Spain	ESP	39.00034425770	-1.86999983866
Alba Lulia	Romania	ROU	46.07700313130	23.58000058680
Albany	Australia	AUS	-35.01694659550	117.89160477600
Albany	United States	USA	31.57873008120	-84.15582991710
Albany	United States	USA	42.67001690580	-73.81994917980
Albany	United States	USA	44.62049216620	-123.08694197800
Al Bayda	Libya	LBY	32.76041505840	21.62001338570
Al Bayda	Yemen	YEM	13.97899810450	45.57400264700
Albert Lea	United States	USA	43.64778668120	-93.36870426610
Albuquerque	United States	USA	35.10497479150	-106.64133081200
Albury	Australia	AUS	-36.06003538130	146.92001379300
Aldama	Mexico	MEX	22.92042136530	-98.06996769390
Aldan	Russia	RUS	58.60299786290	125.38939001400
Aleg	Mauritania	MRT	17.05799699670	-13.90899555860
Aleksandrovsk Sakhalinskiy	Russia	RUS	50.89749920560	142.15611852900
Alekseyevka	Russia	RUS	50.65348309230	38.69307979200
Aleksin	Russia	RUS	54.51433270170	37.09436600620
Alenquer	Brazil	BRA	-1.93958575553	-54.78999963540
Aleppo	Syria	SYR	36.22997072250	37.17002030310
Alert	Canada	CAN	82.48332318040	-62.24998356290
Alesund	Kingdom of Norway	NOR	62.54541872060	6.38802323266
Alexander Bay	South Africa	ZAF	-28.60834552130	16.50332311880
Alexandria	Egypt	EGY	31.20001934710	29.94999588900
Alexandria	Romania	ROU	43.90163106990	25.28670654250
Alexandria	United States	USA	31.31109783840	-92.44501387710
Alexandria	United States	USA	38.82043275860	-77.09998152840
Alexandroupoli	Greece	GRC	40.84861936540	25.87440978190
Aleysk	Russia	RUS	52.49176881830	82.77767573950
Al Fallujah	Iraq	IRQ	33.34766603500	43.77726558310
Al Fujayrah	United Arab Emirates	ARE	25.12343935040	56.33748083380
Algeciras	Kingdom of Spain	ESP	36.12671214820	-5.46653036284
Algha	Kazakhstan	KAZ	49.90316713370	57.33499100630
Al Ghaydah	Yemen	YEM	16.23940797830	52.16378210330
Algiers	Algeria	DZA	36.76306479800	3.05055252952
Al Hasakah	Syria	SYR	36.48328859360	40.75000850300
Al Hillah	Iraq	IRQ	32.47213808090	44.42172237020
Al Hillah	Saudi Arabia	SAU	23.48945639950	46.75636022830
Al Hudaydah	Yemen	YEM	14.79794557590	42.95297481160
Al Hufuf	Saudi Arabia	SAU	25.34874859520	49.58559321980
Ali Bayramli	Azerbaijan	AZE	39.93230287580	48.92025915410
Alicante	Kingdom of Spain	ESP	38.35121989530	-0.48364072142
Alice Springs	Australia	AUS	-23.70099648150	133.88003454500
Alice	United States	USA	27.75046246240	-98.07048445820
Aligarh	India	IND	27.89221091610	78.06178788140
Alipur Duar	India	IND	26.48374391580	89.56666703180
Ali Sabih	Djibouti	DJI	11.15622987770	42.71252437210
Aliwal North	South Africa	ZAF	-30.68956215540	26.71003861360
Al Jaghbub	Libya	LBY	29.75039206850	24.51658076850
Al Jahra	Kuwait	KWT	29.33747153630	47.65806229530
Al Jawf	Libya	LBY	24.19998150530	23.28998897170
Al Jubayl	Saudi Arabia	SAU	27.00464235330	49.64600296920
Al Karak	Jordan	JOR	31.18511069640	35.70473506550
Al Khalil	Indeterminate	PSE	31.54059287420	35.09557328160
Al Kharj	Saudi Arabia	SAU	24.15556561180	47.31203690470
Al Khums	Libya	LBY	32.66042116190	14.25999751650
Al Kut	Iraq	IRQ	32.49071575830	45.83037023800
Al Ladhiqiyah	Syria	SYR	35.53998699850	35.77997595090
Allahabad	India	IND	25.45499534000	81.84000687550
Allakaket	United States	USA	66.56548341790	-152.64549951400
Allanmyo	Myanmar	MMR	19.37831199030	95.22792354230
Allende	Mexico	MEX	28.32998781230	-100.84997888400
Allentown	United States	USA	40.59998821930	-75.50002750820
Alliance	United States	USA	42.10139528310	-102.87019148900
Al Mafraq	Jordan	JOR	32.28329706690	36.23329851950
Al Marj	Libya	LBY	32.50045676580	20.82998408880
Almaty	Kazakhstan	KAZ	43.32498984690	76.91503617240
Almenara	Brazil	BRA	-16.17003497430	-40.70000695960
Almeria	Kingdom of Spain	ESP	36.83034751290	-2.42999149719
Almetyevsk	Russia	RUS	54.90040732740	52.31994828170
Almirante	Panama	PAN	9.30001242974	-82.39996810070
Al Mubarraz	Saudi Arabia	SAU	25.42905377100	49.56590449910
Al Mukalla	Yemen	YEM	14.54116538390	49.12593135460
Al Musayyib	Iraq	IRQ	32.77863100080	44.28999914430
Alor Setar	Malaysia	MYS	6.11330771781	100.37293249400
Alotau	Papua New Guinea	PNG	-10.30207273470	150.45907425900
Alpena	United States	USA	45.06160219230	-83.43269576180
Alpine	United States	USA	30.36071657210	-103.66500085600
Al Qamishli	Syria	SYR	37.03002524720	41.22997920610
Al-Qatif	Saudi Arabia	SAU	26.51963319800	50.01151037480
Al Qunaytirah	Syria	SYR	33.12566408190	35.82359085970
Al Qunfudhah	Saudi Arabia	SAU	19.12636354470	41.07887731810
Al Quwayiyah	Saudi Arabia	SAU	24.07371014300	45.28063635130
Alta Floresta	Brazil	BRA	-9.90003009149	-55.90998295250
Alta Gracia	Argentina	ARG	-31.65999387740	-64.42997969730
Altagracia de Orituco	Venezuela	VEN	9.85041811008	-66.37998986980
Alta	Kingdom of Norway	NOR	69.96664532390	23.24167150750
Altamira	Brazil	BRA	-3.19961220410	-52.21000207680
Altata	Mexico	MEX	24.63604509440	-107.91621531700
Altay	China	CHN	47.86659893710	88.11662634170
Altay	Mongolia	MNG	46.39612021800	95.84504349670
Altdorf	Switzerland	CHE	46.87900214440	8.63800258370
Alton	United States	USA	38.89099692690	-90.18422164080
Altoona	United States	USA	40.51859783840	-78.39496708340
Alto Rio Sanguer	Argentina	ARG	-45.03328611380	-70.83328393720
Alvorada	Brazil	BRA	-12.47000242220	-49.08200179200
Al Wajh	Saudi Arabia	SAU	26.23241558740	36.46355179720
Alwar	India	IND	27.54535870260	76.60492590220
Alxa Zuoqi	China	CHN	38.83901043600	105.66862992300
Amahai	Indonesia	IDN	-3.32813149121	128.94049108800
Amapa	Brazil	BRA	2.04998984670	-50.80001062170
Amarillo	United States	USA	35.22998008120	-101.82999658400
Amasya	Turkey	TUR	40.65368003240	35.83304764680
Ambala	India	IND	30.32002138160	76.82000321340
Ambanja	Madagascar	MDG	-13.68289996460	48.45000362020
Ambarchik	Russia	RUS	69.65100567540	162.33359492900
Ambato	Ecuador	ECU	-1.26960081086	-78.61999210780
Ambatondrazaka	Madagascar	MDG	-17.83287921260	48.41667232140
Ambler	United States	USA	67.08648520830	-157.85140914100
Ambon	Indonesia	IDN	-3.71668658561	128.20001949000
Ambriz	Angola	AGO	-7.85498695998	13.12502803410
Amderma	Russia	RUS	69.76301434240	61.66769811890
Americana	Brazil	BRA	-22.74994342160	-47.32998986980
Ames	United States	USA	42.05385296540	-93.61972253600
Amherst	Canada	CAN	45.81656902980	-64.21658187020
Amiens	French Republic	FRA	49.90037660630	2.30000402691
Amman	Jordan	JOR	31.95002524720	35.93329992550
Ammochostos	Northern Cyprus	CYN	35.12502524720	33.95001013060
Amol	Iran	IRN	36.47132549950	52.36330480840
Amos	Canada	CAN	48.56663372710	-78.11666365730
Amravati	India	IND	20.94997316380	77.77002274470
Amritsar	India	IND	31.63999249170	74.86999304090
Amsterdam	Kingdom of the Netherlands	NLD	52.34996868810	4.91664017601
Am Timan	Chad	TCD	11.03329164520	20.28329911160
Amundsen–Scott South Pole Station	Indeterminate	ATA	-89.98289386130	139.26699255300
Amursk	Russia	RUS	50.22283754380	136.89742142700
Anaco	Venezuela	VEN	9.44000388482	-64.46000370450
Anadyr	Russia	RUS	64.73699037590	177.47499629600
Anapolis	Brazil	BRA	-16.31958656940	-48.95996789710
Anatuya	Argentina	ARG	-28.46613197960	-62.83330713060
Anbyon	Korea, North	PRK	39.02817201640	127.51856237700
Anchorage	United States	USA	61.21996990880	-149.90021488600
Ancona	Italy	ITA	43.60037355460	13.49994055040
Ancud	Chile	CHL	-41.86996498750	-73.82997440760
Anda	China	CHN	46.39999595040	125.32004024200
Andamooka	Australia	AUS	-30.43097328820	137.16557043400
Anderson	United States	USA	34.50374534000	-82.65026290050
Andijon	Uzbekistan	UZB	40.79000246080	72.33996659230
Andkhvoy	Afghanistan	AFG	36.93165915840	65.10149369190
Andoany	Madagascar	MDG	-13.40002317420	48.26660396200
Andoas	Peru	PER	-2.90205930696	-76.40247888360
Andong	Korea, South	KOR	36.56591920880	128.72500036500
Andorra	Andorra	AND	42.50000144350	1.51648596051
Andradina	Brazil	BRA	-20.90959063840	-51.37994938310
Androka	Madagascar	MDG	-25.02194622810	44.07494694360
Angangxi	China	CHN	47.16005291650	123.80002966200
Angarsk	Russia	RUS	52.56000754710	103.92000280700
Angeles	Philippines	PHL	15.14505617160	120.54508622100
Angers	French Republic	FRA	47.48000754710	-0.53002994933
Angoche	Mozambique	MOZ	-16.23003131220	39.91000809610
Angol	Chile	CHL	-37.79000730510	-72.71001692880
Angra do Heroismo	Portugal	PRT	38.65039145820	-27.21666976060
Angren	Uzbekistan	UZB	41.03037538560	70.15493200570
Ang Thong	Thailand	THA	14.58330305700	100.44999965700
Aniak	United States	USA	61.57870770180	-159.52218571200
Ankang	China	CHN	32.67998069160	109.02000158600
Ankara	Turkey	TUR	39.92723858550	32.86439164100
Anlu	China	CHN	31.26998923650	113.67000199300
Annaba	Algeria	DZA	36.92000612290	7.75998083358
An Nabk	Saudi Arabia	SAU	31.33330204580	37.33329653450
An Najaf	Iraq	IRQ	32.00033225410	44.33537105180
Annapolis	United States	USA	38.97833009750	-76.49249922860
Ann Arbor	United States	USA	42.30037538560	-83.71999088720
Anna Regina	Guyana	GUY	7.27042055148	-58.50005741540
An Nasiriyah	Iraq	IRQ	31.04294883120	46.26755285520
Annecy	French Republic	FRA	45.89997479150	6.11667028670
Anqing	China	CHN	30.49995871890	117.05000240000
Ansan	Korea, South	KOR	37.34806784980	126.85953283600
Anshan	China	CHN	41.11502138170	122.94003047600
Anshun	China	CHN	26.25039898580	105.93000931700
Antalaha	Madagascar	MDG	-14.88334348670	50.28332840860
Antalya	Turkey	TUR	36.88998211570	30.69997595090
Antananarivo	Madagascar	MDG	-18.91663735060	47.51662390010
Antigonish	Canada	CAN	45.62691652330	-61.99819014650
Antigua Guatemala	Guatemala	GTM	14.56669809570	-90.73330161190
Antioch	Turkey	TUR	36.23333409290	36.11667655840
Antofagasta	Chile	CHL	-23.64999184290	-70.40000289070
Antsirabe	Madagascar	MDG	-19.85001707070	47.03329422890
Antsiranana	Madagascar	MDG	-12.27650151560	49.31152610420
Antsohihy	Madagascar	MDG	-14.86608355830	47.98336543660
Antwerpen	Belgium	BEL	51.22037355460	4.41501704776
Anuradhapura	Sri Lanka	LKA	8.34999289849	80.38329992570
Anxi	China	CHN	40.50043357240	95.79998164770
Anyang	China	CHN	36.07997987780	114.35001216500
Anzhero Sudzhensk	Russia	RUS	56.08002524730	86.04000891010
Aomori	Japan	JPN	40.82503908190	140.71000524800
Aosta	Italy	ITA	45.73700106710	7.31500259571
Apalachicola	United States	USA	29.72561321920	-84.99252303240
Apatity	Russia	RUS	67.57307049480	33.39304154330
Apatzingan	Mexico	MEX	19.07998394670	-102.35001652200
Apia	Samoa	WSM	-13.84154504240	-171.73864160900
Apodi	Brazil	BRA	-5.65000527051	-37.80000309400
Apolo	Bolivia	BOL	-14.71958087280	-68.41999454920
Appenzell	Switzerland	CHE	47.33330410310	9.41670050466
Appleton	United States	USA	44.26867901520	-88.40050622740
Apsheronsk	Russia	RUS	44.46871848460	39.72872717160
Apucarana	Brazil	BRA	-23.54999794640	-51.47002140460
Aqadyr	Kazakhstan	KAZ	48.27486859040	72.85988317760
Aqsay	Kazakhstan	KAZ	51.17143597320	53.03489172240
Aqsu	Kazakhstan	KAZ	52.45019512850	71.95973140350
Aqtau	Kazakhstan	KAZ	43.62318869940	51.23650020220
Aqtobe	Kazakhstan	KAZ	50.28001751620	57.16998815800
Aquidauana	Brazil	BRA	-20.46961749390	-55.79001611490
Aracaju	Brazil	BRA	-10.90002073280	-37.11996708330
Aracati	Brazil	BRA	-4.55999428418	-37.77003076330
Aracatuba	Brazil	BRA	-21.20998573930	-50.45000614580
Aracuai	Brazil	BRA	-16.85960528680	-42.06994917960
Arad	Romania	ROU	46.17000998850	21.31998001980
Araguaina	Brazil	BRA	-7.19001462924	-48.21001367350
Araguari	Brazil	BRA	-18.64001340860	-48.19998844560
Arak	Algeria	DZA	25.27999310200	3.74999304059
Arak	Iran	IRN	34.08041200670	49.70000484090
Aral	Kazakhstan	KAZ	46.79997153630	61.66661291390
Aranyaprathet	Thailand	THA	13.68235475560	102.49693721400
Araouane	Mali	MLI	18.90002077130	-3.52995019674
Arapiraca	Brazil	BRA	-9.75001340855	-36.66999454910
Arapongas	Brazil	BRA	-23.41000649130	-51.43004968420
Ararangua	Brazil	BRA	-28.94000486370	-49.49998661460
Ararat	Australia	AUS	-37.27954750700	142.90997432400
Arar	Saudi Arabia	SAU	30.99000632630	41.02068965530
Arauca	Colombia	COL	7.09066408175	-70.76163456390
Arawa	Papua New Guinea	PNG	-6.22800003317	155.56599066800
Araxa	Brazil	BRA	-19.57959430050	-46.95001306310
Arba Minch	Ethiopia	ETH	6.04000469861	37.54999710970
Arcata	United States	USA	40.88519044910	-124.08822453000
Archangel	Russia	RUS	64.57495892250	40.54500809610
Arcoverde	Brazil	BRA	-8.42001707066	-37.06999597320
Arctic Bay	Canada	CAN	73.03330568360	-85.16662093270
Ardabil	Iran	IRN	38.25000246080	48.30003861370
Ardmore	United States	USA	34.18107769680	-97.12940494970
Arecibo	United States	USA	18.44002300920	-66.72999434580
Arendal	Kingdom of Norway	NOR	58.46475605550	8.76600055346
Arequipa	Peru	PER	-16.41999387730	-71.53001143560
Arezzo	Italy	ITA	43.46172568670	11.87497513700
Argentia	Canada	CAN	47.30043194490	-53.98999678710
Arica	Chile	CHL	-18.50002195350	-70.28998376630
Aripuana	Brazil	BRA	-9.16999713251	-60.64000431480
Ariquemes	Brazil	BRA	-9.93961423863	-63.07998458010
Arjona	Colombia	COL	10.26003135060	-75.34998498710
Arlit	Niger	NER	18.81997397760	7.32998124048
Arlon	Belgium	BEL	49.68330312690	5.81670047204
Armavir	Russia	RUS	45.00039145820	41.13003698610
Armenia	Colombia	COL	4.53428265270	-75.68112756520
Armidale	Australia	AUS	-30.51231199260	151.66747595100
Arnhem	Kingdom of the Netherlands	NLD	51.98799603450	5.92299956246
Arqalyq	Kazakhstan	KAZ	50.24180279450	66.89761144900
Ar Ramadi	Iraq	IRQ	33.42001304020	43.29998205440
Ar Raqqah	Syria	SYR	35.93037660630	39.01998490270
Arras	French Republic	FRA	50.28332480780	2.78333369814
Arrecife	Kingdom of Spain	ESP	28.96904923040	-13.53783283070
Arroyos y Esteros	Paraguay	PRY	-25.04995807010	-57.08998844570
Ar Rutbah	Iraq	IRQ	33.03846010240	40.28445552450
Arsenyev	Russia	RUS	44.16230307930	133.28234492900
Artashat	Armenia	ARM	39.95388890000	44.55055560000
Artemisa	Cuba	CUB	22.81339947410	-82.76188399430
Artemovskiy	Russia	RUS	57.36519228020	61.86975296920
Artemovsk	Russia	RUS	54.34873557450	93.43552648820
Artigas Base	Indeterminate	ATA	-62.17388669198	-58.86386407234
Artigas	Uruguay	URY	-30.41598712280	-56.48602014320
Arua	Uganda	UGA	3.02036989228	30.90001542030
Arusha	United Republic of Tanzania	TZA	-3.36001584993	36.66999914420
Arvayheer	Mongolia	MNG	46.24997926750	102.76658483800
Arviat	Canada	CAN	61.10859211120	-94.05860671830
Arxan	China	CHN	47.18330731110	119.96662023800
Arys	Kazakhstan	KAZ	42.43687868150	68.80483353560
Arzamas	Russia	RUS	55.39998923660	43.80000321330
Asadabad	Afghanistan	AFG	34.86600003970	71.15000458590
Asahikawa	Japan	JPN	43.75501527820	142.37998083400
Asansol	India	IND	23.68333330000	86.98333330000
Asbest	Russia	RUS	57.02304262200	61.45804683310
Ascension	Bolivia	BOL	-15.69957273470	-63.07998458010
Ascension	Mexico	MEX	31.10002545070	-107.97998295300
Asela	Ethiopia	ETH	7.95040488579	39.13992590210
Asha	Russia	RUS	54.99799826980	57.27261755250
Ashburton	New Zealand	NZL	-43.89790321990	171.73007564200
Asheville	United States	USA	35.60119773260	-82.55414473640
Ashgabat	Turkmenistan	TKM	37.94999493310	58.38329911180
Ash Shatrah	Iraq	IRQ	31.41752545070	46.17722245160
Ash Shihr	Yemen	YEM	14.75931744280	49.60915767290
Ashtarak	Armenia	ARM	40.30166670000	44.35916670000
Asino	Russia	RUS	56.99312196770	86.16268876030
Asmara	Eritrea	ERI	15.33333925270	38.93332352580
Asosa	Ethiopia	ETH	10.06699403780	34.53333369830
Assab	Eritrea	ERI	13.01001853330	42.72999100620
As Salt	Jordan	JOR	32.03919293110	35.72721431350
As Samawah	Iraq	IRQ	31.30985760400	45.28027461630
Assen	Kingdom of the Netherlands	NLD	53.00000109240	6.55000258464
As Sib	Oman	OMN	23.68024578750	58.18253617230
As Sidr	Libya	LBY	30.67041343080	18.26662634140
Assis	Brazil	BRA	-22.65961301800	-50.41998213870
As Sulaymaniyah	Iraq	IRQ	35.56127768860	45.43085974000
As Sulayyil	Saudi Arabia	SAU	20.46225099590	45.57224645870
As Suwayda	Syria	SYR	32.70041872050	36.56659460320
Astana	Kazakhstan	KAZ	51.18112530430	71.42777420950
Asti	Italy	ITA	44.92998231920	8.20997920597
Astoria	United States	USA	46.18838096020	-123.82999739800
Astrakhan	Russia	RUS	46.34865541490	48.05498897180
Asuncion	Paraguay	PRY	-25.29640297570	-57.64150516930
Aswan	Egypt	EGY	24.08750775040	32.89891149770
Asyut	Egypt	EGY	27.18997987770	31.17994665400
Atakpame	Togo	TGO	7.53004294731	1.12002437196
Atamyrat	Turkmenistan	TKM	37.82480877590	65.19973058970
'Ataq	Yemen	YEM	14.55000311120	46.80000058210
Atar	Mauritania	MRT	20.51664044090	-13.04998925930
Atasu	Kazakhstan	KAZ	48.69032126780	71.64993119190
Atbara	Sudan	SDN	17.70999005020	33.97998246130
Atbasar	Kazakhstan	KAZ	51.82188722650	68.34770381560
At Bashy	Kyrgyzstan	KGZ	41.17248557440	75.79680985400
Athabasca	Canada	CAN	54.71703350740	-113.26658532900
Athens	Greece	GRC	37.98332623190	23.73332108430
Athens	United States	USA	33.96129783020	-83.37802209650
Atherton	Australia	AUS	-17.27027789430	145.46935298600
Ati	Chad	TCD	13.21706015920	18.33328893910
Atikokan	Canada	CAN	48.75039512030	-91.61658899100
Atkarsk	Russia	RUS	51.87645753900	44.99610591510
Atka	United States	USA	52.19648968410	-174.20048873100
Atlanta	United States	USA	33.83001385400	-84.39994938330
Atlantic City	United States	USA	39.36463726710	-74.42332320320
Atlixco	Mexico	MEX	18.90002077130	-98.44999617690
Atoyac	Mexico	MEX	17.19999533990	-100.43003035700
Atqasuk	United States	USA	70.46937949540	-157.39577803800
At Tafilah	Jordan	JOR	30.83333404400	35.60000463600
At Taif	Saudi Arabia	SAU	21.26222800600	40.38227901080
Attapu	Laos	LAO	14.80799710040	106.83900054900
Attawapiskat	Canada	CAN	52.91662660630	-82.43332523770
Atyrau	Kazakhstan	KAZ	47.11269146640	51.92002437220
Auburn	United States	USA	32.60970074360	-85.48083947930
Auckland	New Zealand	NZL	-36.85001300180	174.76498083400
Augsburg	Germany	DEU	48.35000612290	10.89999588890
Augusta	United States	USA	33.46081158350	-81.98498051120
Augusta	United States	USA	44.31056276350	-69.77998905610
Aurangabad	India	IND	19.89569643040	75.32030147190
Aurangabad	India	IND	24.77041180320	84.38000687560
Aurora	United States	USA	39.69585735990	-104.80849695000
Aurora	United States	USA	41.76539512030	-88.29999556650
Austin	United States	USA	30.26694968570	-97.74277836280
Autlan	Mexico	MEX	19.77001934710	-104.36999658400
Auxerre	French Republic	FRA	47.80042726550	3.56659338239
Avare	Brazil	BRA	-23.11002480180	-48.93002140460
Aveiro	Portugal	PRT	40.64100310520	-8.65099753409
Awasa	Ethiopia	ETH	7.05999607741	38.47699861840
Aweil	South Sudan	SSD	8.76655661919	27.40002233760
Awjilah	Libya	LBY	29.10802817690	21.28690710320
Awka	Nigeria	NGA	6.21043357231	7.06999710962
Ayacucho	Peru	PER	-13.17502398800	-74.21995060390
Ayakoz	Kazakhstan	KAZ	47.96473248200	80.42970536190
Ayan	Russia	RUS	56.45424112970	138.16733050200
Ayapel	Colombia	COL	8.33040753065	-75.15002303230
Ayaviri	Peru	PER	-14.87957110710	-70.59999068370
Aybak	Afghanistan	AFG	36.26100014750	68.04000050980
Aydin	Turkey	TUR	37.84997519840	27.85002071000
Ayorou	Niger	NER	14.73179974260	0.91946813824
Ayoun el Atrous	Mauritania	MRT	16.66659120580	-9.61665877424
Ayr	Australia	AUS	-19.57024086630	147.39946773200
Ayr	United Kingdom	GBR	55.45039959630	-4.61667972962
Ayutla	Mexico	MEX	16.90037538550	-99.22000085630
Ayutthaya	Thailand	THA	14.35879925430	100.56842443700
Azare	Nigeria	NGA	11.68040976860	10.19001338570
Az Aubayr	Iraq	IRQ	30.38916444810	47.70798172890
Azogues	Ecuador	ECU	-2.74000201529	-78.84003035650
Azua	Dominican Republic	DOM	18.45399612940	-70.72900159520
Azul	Argentina	ARG	-36.77962970100	-59.86999963540
Az Zahran	Saudi Arabia	SAU	26.29143007300	50.15832311890
Az Zarqa	Jordan	JOR	32.06999208480	36.10000809610
Az Zawiyah	Libya	LBY	32.76041505840	12.71998815780
Babahoyo	Ecuador	ECU	-1.79959430045	-79.54001347020
Babanusa	Sudan	SDN	11.33335084930	27.79999792350
Babati	United Republic of Tanzania	TZA	-4.21954994824	35.75000362010
B'abda	Lebanon	LBN	33.83330406350	35.53329651820
Babruysk	Belarus	BLR	53.12656211250	29.19278112660
Bacabal	Brazil	BRA	-4.22998858757	-44.79998925940
Bacau	Romania	ROU	46.57843467110	26.91963822300
Bac Giang	Vietnam	VNM	21.26700807590	106.20001867600
Bac Kan	Vietnam	VNM	22.13333330000	105.83333330000
Bac Lieu	Vietnam	VNM	9.28037538547	105.71999629600
Bacolod	Philippines	PHL	10.63168825170	122.98168168000
Badajoz	Kingdom of Spain	ESP	38.88042909650	-6.96997277976
Baddeck	Canada	CAN	46.09998842270	-60.75397668620
Bade	Taiwan	TWN	24.95750000000	121.29888888889
Badulla	Sri Lanka	LKA	6.98369386691	81.04992590220
Baerum	Kingdom of Norway	NOR	59.91348605970	11.34723651360
Bafang	Cameroon	CMR	5.17039369600	10.17998815780
Bafata	Guinea Bissau	GNB	12.16699505510	-14.66601464990
Bafia	Cameroon	CMR	4.75039349255	11.23000158550
Bafoulabe	Mali	MLI	13.80038372700	-10.82002201480
Bafoussam	Cameroon	CMR	5.49042584118	10.40994828150
Bafra	Turkey	TUR	41.56817201650	35.90689326860
Bafwasende	Congo (Kinshasa)	COD	1.08384726858	27.26659378940
Bagamoyo	United Republic of Tanzania	TZA	-6.43962115593	38.89001867550
Bagdarin	Russia	RUS	54.43330405590	113.60003210400
Bage	Brazil	BRA	-31.32001462930	-54.10001591150
Baghdad	Iraq	IRQ	33.33864849750	44.39386877320
Baghlan	Afghanistan	AFG	36.13933026030	68.69925858450
Baglung	Nepal	NPL	28.26669605930	83.58329762020
Bago	Myanmar	MMR	17.32001385390	96.51497676490
Baguio City	Philippines	PHL	16.42999066060	120.56994258500
Bahawalpur	Pakistan	PAK	29.38997479150	71.67499426160
Bahia Blanca	Argentina	ARG	-38.74002683640	-62.26502140470
Bahir Dar	Ethiopia	ETH	11.60005291640	37.38328893920
Bahraich	India	IND	27.62041872050	81.66993973690
Baia Mare	Romania	ROU	47.65945395820	23.57906693390
Baicheng	China	CHN	45.62001771960	122.82003780000
Baie-Comeau	Canada	CAN	49.22266603500	-68.15799503750
Baiquan	China	CHN	47.60183473620	126.08185420600
Bairin Zuoqi	China	CHN	43.98370932930	119.18336055400
Bairnsdale	Australia	AUS	-37.82959145230	147.60999751700
Baishan	China	CHN	41.90001222640	126.42999833100
Bajram Curri	Albania	ALB	42.33330006780	20.08330257000
Bakal	Russia	RUS	54.94588258780	58.79588374720
Baker Lake	Canada	CAN	64.31699017250	-96.01665633320
Bakersfield	United States	USA	35.36997153630	-119.01998091800
Baku	Azerbaijan	AZE	40.39527203270	49.86221716190
Balakhna	Russia	RUS	56.49434104320	43.59438268920
Balakovo	Russia	RUS	52.02998821930	47.80001745480
Balancan	Mexico	MEX	17.79995871880	-91.52997929050
Balashov	Russia	RUS	51.55350567540	43.16309118530
Balboa	Panama	PAN	8.94998211561	-79.56665267100
Balcarce	Argentina	ARG	-37.83331215540	-58.24999515950
Balikesir	Turkey	TUR	39.65038209950	27.89001826860
Balikpapan	Indonesia	IDN	-1.25001544302	116.83001582800
Balkanabat	Turkmenistan	TKM	39.51238018700	54.36493973680
Balkh	Afghanistan	AFG	36.75011985170	66.89973018280
Ballarat	Australia	AUS	-37.55958209360	143.84004675200
Ballina	Australia	AUS	-28.86135333380	153.56798010200
Balqash	Kazakhstan	KAZ	46.85322409980	74.95024654020
Balsas	Brazil	BRA	-7.52002032586	-46.04999048010
Baltasar Brum	Uruguay	URY	-30.73002480190	-57.31997440760
Balti	Moldova	MDA	47.75908611970	27.90531449250
Baltimore	United States	USA	39.29999005030	-76.61998498710
Balykchy	Kyrgyzstan	KGZ	42.45602479970	76.18536494840
Balyqshy	Kazakhstan	KAZ	47.06659608870	51.86659094120
Bamako	Mali	MLI	12.65001466770	-8.00003910464
Bama	Nigeria	NGA	11.52039369600	13.69000646840
Bambari	Central African Republic	CAF	5.76195965466	20.66720332710
Bamenda	Cameroon	CMR	5.95998374320	10.15001582710
Bamian	Afghanistan	AFG	34.82106447250	67.52103592820
Bam	Iran	IRN	29.10769228010	58.36195674520
Banamba	Mali	MLI	13.55039898570	-7.44999515932
Banda Aceh	Indonesia	IDN	5.54998292940	95.32001094460
Bandarbeyla	Somalia	SOM	9.48330873508	50.81668086630
Bandar-e-Abbas	Iran	IRN	27.20405978220	56.27213554360
Bandar-e Bushehr	Iran	IRN	28.91997763980	50.83001338580
Bandar Lampung	Indonesia	IDN	-5.43001869825	105.26999792400
Bandar Seri Begawan	Brunei	BRN	4.88333111462	114.93328405700
Bandjarmasin	Indonesia	IDN	-3.32999184277	114.58007564200
Bandundu	Congo (Kinshasa)	COD	-3.30999306347	17.37996211620
Bandung	Indonesia	IDN	-6.95002927768	107.57001257200
Banes	Cuba	CUB	20.96291811010	-75.71859297860
Banff	Canada	CAN	51.17799888010	-115.57192265000
Banfora	Burkina Faso	BFA	10.63044801730	-4.76000431458
Bangalore	India	IND	12.96999513650	77.56000972380
Bangassou	Central African Republic	CAF	4.73375368135	22.81663285190
Banghazi	Libya	LBY	32.11673341780	20.06672318390
Bangkok	Thailand	THA	13.74999920550	100.51664465200
Bangor	United States	USA	44.80115297350	-68.77834476890
Bangui	Central African Republic	CAF	4.36664430635	18.55828812530
Ban Houayxay	Laos	LAO	20.27750000000	100.41277780000
Bani	Dominican Republic	DOM	18.27999899780	-70.33100346580
Bani Walid	Libya	LBY	31.77039796860	13.98998815780
Banja Luka	Bosnia and Herzegovina	BIH	44.78040488590	17.17997432320
Banjul	Gambia, The	GMB	13.45387646030	-16.59170148920
Bannu	Pakistan	PAK	32.98897991840	70.59857417690
Bansang	Gambia, The	GMB	13.43363608700	-14.65002079410
Banska Bystrica	Slovakia	SVK	48.73329022120	19.14998327500
Banyuwangi	Indonesia	IDN	-8.19501788446	114.36959753300
Baoding	China	CHN	38.87042970690	115.48002071000
Baoji	China	CHN	34.38000612290	107.14998653100
Baoshan	China	CHN	25.11997702940	99.15000972390
Baotou	China	CHN	40.65220725410	109.82201981500
Baqubah	Iraq	IRQ	33.74764162090	44.65726354860
Barabinsk	Russia	RUS	55.35727866530	78.35189937230
Barahona	Dominican Republic	DOM	18.20037355450	-71.09998600430
Baraki Barak	Afghanistan	AFG	33.96670209600	68.96670354040
Baramula	India	IND	34.20043052070	74.35002477920
Baranavichy	Belarus	BLR	53.13684572260	26.01344030630
Barbacena	Brazil	BRA	-21.22001096720	-43.77000044920
Barcaldine	Australia	AUS	-23.56617266970	145.28336950600
Barcelona	Kingdom of Spain	ESP	41.38329957990	2.18337031923
Barcelona	Venezuela	VEN	10.13037518200	-64.72001367350
Barcelos	Brazil	BRA	-0.97499347037	-62.92389591640
Barclayville	Liberia	LBR	4.79999699650	-8.16669851802
Barddhaman	India	IND	23.25037538550	87.86496211640
Bareilly	India	IND	28.34538738910	79.41999955130
Bar Harbor	United States	USA	44.38789654450	-68.20437463550
Bari	Italy	ITA	41.11422039700	16.87275793320
Barinas	Venezuela	VEN	8.59997763970	-70.25001204600
Barisal	Bangladesh	BGD	22.70040895490	90.37498978570
Barletta	Italy	ITA	41.31999595040	16.27000402700
Barlett	United States	USA	35.22290041000	-89.84109013040
Barnaul	Russia	RUS	53.35499778150	83.74500687550
Barquisimeto	Venezuela	VEN	10.04999249160	-69.29996667650
Barra do Bugres	Brazil	BRA	-15.06958534870	-57.19000818040
Barra do Corda	Brazil	BRA	-5.50960040398	-45.25996118320
Barra do Garcas	Brazil	BRA	-15.87961342490	-52.25999902510
Barra Mansa	Brazil	BRA	-22.56003253300	-44.16995019690
Barrancabermeja	Colombia	COL	7.08999228813	-73.84999902510
Barranquilla	Colombia	COL	10.95998862600	-74.79996688000
Barras	Brazil	BRA	-4.25003904329	-42.29998681800
Barreiras	Brazil	BRA	-12.13999672560	-45.00000289060
Barreiros	Brazil	BRA	-8.82960447300	-35.20000675610
Barretos	Brazil	BRA	-20.55002602250	-48.58001692870
Barrie	Canada	CAN	44.38376242990	-79.70000370450
Barrow	United States	USA	71.29056968100	-156.78857995800
Barstow	United States	USA	34.89901837060	-117.02188582500
Bartica	Guyana	GUY	6.41042136528	-58.63002364260
Bartlesville	United States	USA	36.74720013330	-95.98058618340
Baruun Urt	Mongolia	MNG	46.69997763990	113.28330725000
Barysaw	Belarus	BLR	54.22600404780	28.49215205760
Basankusu	Congo (Kinshasa)	COD	1.23370892222	19.80002111680
Basel	Switzerland	CHE	47.58038901680	7.59001704777
Basoko	Congo (Kinshasa)	COD	1.24042685842	23.59002233750
Basra	Iraq	IRQ	30.51352378240	47.81355668010
Bassar	Togo	TGO	9.26100006832	0.78900357378
Basse Santa Su	Gambia, The	GMB	13.31000112150	-14.22299649940
Basse-terre	French Republic	FRA	16.23039044080	-61.43998132490
Basseterre	Saint Kitts and Nevis	KNA	17.30203045550	-62.71700931970
Bastia	French Republic	FRA	42.70316733710	9.45000687525
Bata	Equatorial Guinea	GNQ	1.87000083303	9.76998734400
Batagay	Russia	RUS	67.65598533040	134.63502722100
Batangas	Philippines	PHL	13.78167685850	121.02169795600
Batatais	Brazil	BRA	-20.89000527060	-47.58999983880
Bataysk	Russia	RUS	47.13682436020	39.74485021850
Batemans Bay	Australia	AUS	-35.68961871460	150.20730668100
Bath	United Kingdom	GBR	51.38374859530	-2.35002221822
Bathurst	Australia	AUS	-33.41962807340	149.57003291700
Bathurst	Canada	CAN	47.59997438460	-65.64998274910
Bati	Ethiopia	ETH	11.18374757790	40.01656489950
Batman	Turkey	TUR	37.89041200670	41.14001053750
Batna	Algeria	DZA	35.56995932930	6.17000036482
Baton Rouge	United States	USA	30.45794577940	-91.14015812350
Batouri	Cameroon	CMR	4.43369447725	14.36660599640
Battambang	Cambodia	KHM	13.10001304010	103.20004675200
Batticaloa	Sri Lanka	LKA	7.71700827934	81.70001542050
Battle Creek	United States	USA	42.32109763500	-85.17974674650
Batumi	Georgia	GEO	41.60000469880	41.63000646850
Batu Pahat	Malaysia	MYS	1.85036378876	102.93334468500
Baturite	Brazil	BRA	-4.32956907259	-38.87998885250
Baubau	Indonesia	IDN	-5.46986122754	122.61632930400
Bauchi	Nigeria	NGA	10.31036419570	9.84000890976
Baures	Bolivia	BOL	-13.58001218790	-63.58005741540
Bauru	Brazil	BRA	-22.33002073280	-49.08001224930
Bavaro	Dominican Republic	DOM	18.71700868630	-68.44996687990
Bawku	Ghana	GHA	11.06039593400	-0.23999597310
Bayamo	Cuba	CUB	20.37954286600	-76.64329105800
Bayankhongor	Mongolia	MNG	46.30000205390	100.98333451200
Bayan Obo	China	CHN	41.76764304510	109.97110632200
Bay City	United States	USA	28.98111085920	-95.96435978370
Bay City	United States	USA	43.59445660310	-83.88889530610
Baydhabo	Somalia	SOM	3.11997621552	43.64998653030
Bayghanin	Kazakhstan	KAZ	48.69169069320	55.87399491250
Baykonur	Kazakhstan	KAZ	45.69135703440	63.24134883510
Baytown	United States	USA	29.75584393210	-94.96772811050
Beaufort	United States	USA	32.43216636050	-80.68950403010
Beaufort West	South Africa	ZAF	-32.34961586630	22.56998124050
Beaumont	United States	USA	30.08626304020	-94.10168278170
Beaver Falls	United States	USA	40.75194276840	-80.31942326020
Bechar	Algeria	DZA	31.61110536600	-2.23000370422
Beckley	United States	USA	37.78018617660	-81.18301395840
Bedourie	Australia	AUS	-24.34958738320	139.46661861100
Beer Sheva	Israel	ISR	31.25001629540	34.83000809610
Beeville	United States	USA	28.40597800600	-97.75083988620
Behbehan	Iran	IRN	30.58181418760	50.26146927780
Beian	China	CHN	48.23900514640	126.48203649800
Beihai	China	CHN	21.48040590310	109.10004838000
Beijing	China	CHN	39.92889223130	116.38828568400
Beipiao	China	CHN	41.81001771960	120.76000850300
Beira	Mozambique	MOZ	-19.82004474000	34.87000565460
Beirut	Lebanon	LBN	33.87197511700	35.50970821000
Beitbridge	Zimbabwe	ZWE	-22.20961464560	29.98999344760
Bejaia	Algeria	DZA	36.76037762350	5.07001582706
Beja	Portugal	PRT	38.01400214270	-7.86300241019
Beja	Tunisia	TUN	36.73040529280	9.19002274439
Bekasi	Indonesia	IDN	-6.21725746778	106.97232295600
Bekescsaba	Hungary	HUN	46.67200211030	21.10100456840
Bekiy	Madagascar	MDG	-24.21615883500	45.31660314820
Belabo	Cameroon	CMR	4.93368979789	13.30000443390
Belaya Kalitva	Russia	RUS	48.18650189120	40.78613032920
Belebey	Russia	RUS	54.12913657540	54.11870153690
Beledweyne	Somalia	SOM	4.73998069144	45.20002111690
Belem	Brazil	BRA	-1.45000323599	-48.48002303220
Belen	Argentina	ARG	-27.64959267290	-67.03328332690
Belen	Paraguay	PRY	-23.46948606490	-57.23997929040
Belfast	United Kingdom	GBR	54.60001222650	-5.96003442527
Belgaum	India	IND	15.86501222630	74.50500239960
Belgorod	Russia	RUS	50.62999615390	36.59992590210
Belgrade	Republic of Serbia	SRB	44.81864544580	20.46799068060
Belize City	Belize	BLZ	17.49871095680	-88.18837447280
Bella Bella	Canada	CAN	52.14840476390	-128.11728092600
Bellary	India	IND	15.15004294730	76.91503617240
Bella Union	Uruguay	URY	-30.25961423870	-57.59995731770
Bella Vista	Paraguay	PRY	-22.12961952840	-56.51999739750
Belleville	Canada	CAN	44.16666973780	-77.38334924490
Belleville	United States	USA	38.52515362450	-90.00022770360
Bellingham	United States	USA	48.76013612780	-122.48692692200
Bellinzona	Switzerland	CHE	46.19700013170	9.01999860875
Bello	Colombia	COL	6.32998699841	-75.56999739760
Bell Ville	Argentina	ARG	-32.60003985720	-62.67995731770
Belmopan	Belize	BLZ	17.25203350720	-88.76707299980
Belogorsk	Russia	RUS	50.91909995430	128.46372432400
Belo Horizonte	Brazil	BRA	-19.91502602250	-43.91500451820
Belomorsk	Russia	RUS	64.52522035640	34.76582596710
Bemidji	United States	USA	47.47357383130	-94.88018823420
Bendigo	Australia	AUS	-36.75999265670	144.28001989700
Bend	United States	USA	44.07192099920	-121.30999617700
Benevento	Italy	ITA	41.13370241200	14.74999344750
Ben Gardane	Tunisia	TUN	33.14039186510	11.22002803410
Bengbu	China	CHN	32.94999005030	117.33003698600
Bengkulu	Indonesia	IDN	-3.80004067090	102.26997432400
Benguela	Angola	AGO	-12.57826454790	13.40723303090
Benha	Egypt	EGY	30.46666511550	31.18333562940
Beni	Congo (Kinshasa)	COD	0.49044679657	29.45002640660
Beni Mazar	Egypt	EGY	28.49039145810	30.80999507520
Benin City	Nigeria	NGA	6.34047731417	5.62000809594
Beni Ounif	Algeria	DZA	32.04926983540	-1.25138126770
Beni Suef	Egypt	EGY	29.08038128560	31.09002966180
Benoni	South Africa	ZAF	-26.14958087280	28.32993973670
Bentiu	South Sudan	SSD	9.23333330000	29.83333330000
Bento Goncalves	Brazil	BRA	-29.16949989950	-51.51996667640
Bentol	Liberia	LBR	6.43329903452	-10.60000151940
Benton Harbor	United States	USA	42.11663983060	-86.45419091970
Benxi	China	CHN	41.33038291330	123.75000687600
Berat	Albania	ALB	40.70999704890	19.97199958470
Berbera	Somaliland	SOL	10.43555035290	45.01641475300
Berberati	Central African Republic	CAF	4.24995892223	15.78000809600
Berber	Sudan	SDN	18.01702557270	33.98328975300
Berdyansk	Ukraine	UKR	46.75682171540	36.78683955770
Berekum	Ghana	GHA	7.45038372693	-2.59000756978
Berenice	Egypt	EGY	23.94599184060	35.48418005240
Berens River	Canada	CAN	52.36655682280	-97.03331262390
Berezniki	Russia	RUS	59.42000225740	56.75998734420
Bergamo	Italy	ITA	45.70040041000	9.66999344752
Bergen	Kingdom of Norway	NOR	60.39100242020	5.32452225609
Beringovskiy	Russia	RUS	63.06546449700	179.30666743900
Berkeley	United States	USA	37.87390138660	-122.27115197900
Berlin	Germany	DEU	52.52181866360	13.40154862330
Bermejo	Bolivia	BOL	-22.72958290730	-64.34998458010
Bern	Switzerland	CHE	46.91668275870	7.46697546248
Berri	Australia	AUS	-34.28293455120	140.60003780000
Bertoua	Cameroon	CMR	4.58042970674	13.67998124050
Besalampy	Madagascar	MDG	-16.74953448610	44.48332067750
Besancon	French Republic	FRA	47.22999696770	6.03000890974
Bestobe	Kazakhstan	KAZ	52.49967531240	73.09971349990
Betanzos	Bolivia	BOL	-19.55995725620	-65.45002079430
Bethal	South Africa	ZAF	-26.46961301800	29.45002640660
Bethanie	Namibia	NAM	-26.49953367230	17.15000199250
Bethel	United States	USA	60.79330344560	-161.75579614500
Bethlehem	South Africa	ZAF	-28.21958372110	28.29996740590
Beyla	Guinea	GIN	8.68699798703	-8.65700045383
Beyneu	Kazakhstan	KAZ	45.18335186670	55.10003698610
Bezhetsk	Russia	RUS	57.76472861650	36.68999792350
Beziers	French Republic	FRA	43.35049216620	3.20997432314
Bhagalpur	India	IND	25.22999615380	86.98000321350
Bhairawa	Nepal	NPL	27.53330408910	83.38329953060
Bharatpur	India	IND	27.25036378890	77.50001338590
Bhatpara	India	IND	22.85042563780	88.52001257220
Bhavnagar	India	IND	21.77842388810	72.12995357150
Bhilai	India	IND	21.21666670000	81.43333330000
Bhilwara	India	IND	25.35042807920	74.63502030320
Bhimphedi	Nepal	NPL	27.55099809840	85.13000156290
Bhisho	South Africa	ZAF	-32.86999753950	27.38999710970
Bhiwandi	India	IND	19.35001914360	73.12999588920
Bhiwani	India	IND	28.81001019190	76.12500687550
Bhopal	India	IND	23.24998781230	77.40999304090
Bhubaneshwar	India	IND	20.27042807920	85.82736039120
Bhuj	India	IND	23.25037538550	69.80999182020
Bhusawal	India	IND	21.01999472960	75.83003780000
Biak	Indonesia	IDN	-1.16149371451	136.04848099700
Bialystok	Poland	POL	53.15035910960	23.16999629590
Biarritz	French Republic	FRA	43.47327536930	-1.56159489074
Bicheno	Australia	AUS	-41.87838824590	148.28861242600
Bida	Nigeria	NGA	9.08041343072	6.01001013045
Bidar	India	IND	17.92292278950	77.51753169650
Bielefeld	Germany	DEU	52.02998821930	8.53001135116
Biel	Switzerland	CHE	47.16658998520	7.25003779972
Bien Hoa	Vietnam	VNM	10.97001385390	106.83005773800
Bifoum	Gabon	GAB	-0.33291379914	10.38323156600
Big Beaver House	Canada	CAN	52.94998374340	-89.88328393730
Big Delta	United States	USA	64.15252992670	-145.84219385000
Biggar	Canada	CAN	52.05040041010	-107.98329024400
Big Spring	United States	USA	32.24318564760	-101.47518620000
Biharamulo	United Republic of Tanzania	TZA	-2.62962115592	31.31001623410
Bijapur	India	IND	16.83541811010	75.70999344780
Bijar	Iran	IRN	35.87407513330	47.59367346070
Bikaner	India	IND	28.03039369610	73.32993200570
Bikin	Russia	RUS	46.82025453600	134.26492061300
Bilaspur	India	IND	22.09042034810	82.15998734430
Bila Tserkva	Ukraine	UKR	49.77431194980	30.13091507850
Bilbao	Kingdom of Spain	ESP	43.24998150540	-2.92998681783
Bilecik	Turkey	TUR	40.14999902230	29.98299659770
Bilibino	Russia	RUS	68.05040569980	166.33329911200
Billings	United States	USA	45.78830202140	-108.54000044900
Biloela	Australia	AUS	-24.39356402710	150.49607458400
Biloxi	United States	USA	30.39580486960	-88.88530867690
Biltine	Chad	TCD	14.53325888970	20.91669714220
Binga	Congo (Kinshasa)	COD	2.38340618785	20.41998327500
Binghamton	United States	USA	42.09901816720	-75.91832238940
Bingol	Turkey	TUR	38.88500403550	40.49800255800
Binjai	Indonesia	IDN	3.62035910941	98.50007523500
Bintulu	Malaysia	MYS	3.16640748994	113.03598384500
Birak	Libya	LBY	27.53331809390	14.28335526390
Bir Anzarane	Morocco	MAR	23.88374757790	-14.53330957180
Birao	Central African Republic	CAF	10.28369915660	22.78330155300
Biratnagar	Nepal	NPL	26.48374391580	87.28334387100
Birdsville	Australia	AUS	-25.89962196980	139.36662471400
Birganj	Nepal	NPL	27.00040488590	84.86659216200
Birjand	Iran	IRN	32.88002016100	59.21994055060
Bir Lehlou	Western Sahara	SAH	26.11916668600	-9.65252221825
Birmingham	United Kingdom	GBR	52.47497397780	-1.91999678690
Birmingham	United States	USA	33.53000632630	-86.82499515960
Bir Mogrein	Mauritania	MRT	25.23330344540	-11.58330875800
Birnin Kebbi	Nigeria	NGA	12.45041444800	4.19993973656
Birni Nkonni	Niger	NER	13.79043601370	5.25992671573
Birobidzhan	Russia	RUS	48.79742067370	132.95078894000
Birsk	Russia	RUS	55.42438051260	55.54435095100
Biryusinsk	Russia	RUS	55.96065268870	97.81443233130
Bishkek	Kyrgyzstan	KGZ	42.87307944650	74.58520422250
Bishop	United States	USA	37.36395835270	-118.39407597000
Biskra	Algeria	DZA	34.85997682600	5.73002722029
Bismarck	United States	USA	46.80831728020	-100.78331628600
Bissau	Guinea Bissau	GNB	11.86502382300	-15.59836084130
Bistrita	Romania	ROU	47.13800409460	24.51300358030
Bitam	Gabon	GAB	2.08365704234	11.48337113310
Bitlis	Turkey	TUR	38.39400011800	42.12299764730
Bitola	Macedonia	MKD	41.03905702620	21.33951371120
Biu	Nigeria	NGA	10.62042278940	12.18999466820
Biysk	Russia	RUS	52.53406597810	85.18000972390
Bizerte	Tunisia	TUN	37.29042278960	9.85499507512
Blackpool	United Kingdom	GBR	53.83039512030	-3.05000533183
Black River	Jamaica	JAM	18.03099606680	-77.85199748030
Blacksburg	United States	USA	37.22941876120	-80.41419783700
Blagodarnyy	Russia	RUS	45.10472617500	43.43439245480
Blagoveshchensk	Russia	RUS	50.26660748200	127.53334183700
Blantyre	Malawi	MWI	-15.79000649130	34.98994665400
Blenheim	New Zealand	NZL	-41.52099404020	173.95924190200
Blida	Algeria	DZA	36.42034669910	2.82999751650
Blitar	Indonesia	IDN	-8.06959918328	112.14999141300
Bloemfontein	South Africa	ZAF	-29.11999387740	26.22991288120
Bloemhof	South Africa	ZAF	-27.64959267290	25.59000362010
Bloomington	United States	USA	39.16565716460	-86.52640873390
Bloomington	United States	USA	40.48459474590	-88.99359664080
Bluefields	Nicaragua	NIC	11.99997682590	-83.76494938330
Blumenau	Brazil	BRA	-26.92002480180	-49.08998580080
Boaco	Nicaragua	NIC	12.46997397760	-85.66000167010
Boa Vista	Brazil	BRA	2.81609295543	-60.66599756030
Bobo Dioulasso	Burkina Faso	BFA	11.17997519830	-4.28998132467
Bocaiuva	Brazil	BRA	-17.10961586630	-43.81004968420
Bocas del Toro	Panama	PAN	9.33535008368	-82.24747069900
Bodaybo	Russia	RUS	57.96497479160	114.32897985700
Bodo	Kingdom of Norway	NOR	67.24677226870	14.39901132340
Boende	Congo (Kinshasa)	COD	-0.21958738312	20.86000809600
Boffa	Guinea	GIN	10.18500306750	-14.04299644810
Bogande	Burkina Faso	BFA	12.96900003240	-0.13799649999
Bogor	Indonesia	IDN	-6.57000079461	106.75001094500
Bogoroditsk	Russia	RUS	53.77468792630	38.11435542680
Bogota	Colombia	COL	4.59642356253	-74.08334395520
Bogotol	Russia	RUS	56.21647686680	89.51840124410
Bogue	Mauritania	MRT	16.59039430640	-14.26996647280
Boise	United States	USA	43.60859010730	-116.22748987000
Bojnurd	Iran	IRN	37.46999839180	57.32000484090
Boke	Guinea	GIN	10.93998984670	-14.29999048000
Bolama	Guinea Bissau	GNB	11.58295302850	-15.48280398910
Bol	Chad	TCD	13.45895753880	14.71469844430
Bolgatanga	Ghana	GHA	10.79038657530	-0.84998457987
Boli	China	CHN	45.75636598620	130.57594681700
Bollnas	Sweden	SWE	61.35200319330	16.36658727890
Bolobo	Congo (Kinshasa)	COD	-2.15952065136	16.23998001980
Bologna	Italy	ITA	44.50042197580	11.34002070990
Bologoye	Russia	RUS	57.87216391920	34.05176102570
Bol'sheretsk	Russia	RUS	52.43898134270	156.35938594500
Bolu	Turkey	TUR	40.73625897120	31.60612219110
Bolzano	Italy	ITA	46.50042909660	11.36001948920
Boma	Congo (Kinshasa)	COD	-5.82999428419	13.04999385440
Bombo	Uganda	UGA	0.58329910562	32.53329952490
Bom Jesus da Lapa	Brazil	BRA	-13.24954140340	-43.44002059080
Bonao	Dominican Republic	DOM	18.94200313780	-70.40899756920
Bondo	Congo (Kinshasa)	COD	3.80995993948	23.67001745470
Bondoukou	Ivory Coast	CIV	8.03042584119	-2.80002059062
Bongandanga	Congo (Kinshasa)	COD	1.51035870250	21.05002233750
Bongaree	Australia	AUS	-27.07872312540	153.15089961700
Bongor	Chad	TCD	10.28594708140	15.38716385770
Bonn	Germany	DEU	50.72045574860	7.08002233748
Bontang	Indonesia	IDN	0.13325929657	117.50000077200
Boorama	Somaliland	SOL	9.94041261692	43.18004105510
Boosaaso	Somalia	SOM	11.28002077120	49.17998490280
Boralday	Kazakhstan	KAZ	43.33413657540	76.82883988330
Boras	Sweden	SWE	57.73044130360	12.91997595080
Bordeaux	French Republic	FRA	44.85001304020	-0.59501306294
Bordertown	Australia	AUS	-36.31619545620	140.76664261800
Bordj Bou Arreridj	Algeria	DZA	36.05900400830	4.62999646641
Borgarnes	Iceland	ISL	64.56950277210	-21.86232218700
Borisoglebsk	Russia	RUS	51.36871075350	42.08873815790
Borlange	Sweden	SWE	60.48332236650	15.41667110050
Borovichi	Russia	RUS	58.39781658850	33.89740352250
Bor	South Sudan	SSD	6.20720379529	31.55914831410
Borujerd	Iran	IRN	33.91995668440	48.80000809610
Borzya	Russia	RUS	50.38856386220	116.51856197000
Bose	China	CHN	23.89971559550	106.61332678100
Bo	Sierra Leone	SLE	7.97001609185	-11.74001753890
Bosobolo	Congo (Kinshasa)	COD	4.19037599580	19.88001623400
Bossangoa	Central African Republic	CAF	6.48372438448	17.44998368190
Bossembele	Central African Republic	CAF	5.26700278617	17.65002315130
Boston	United States	USA	42.32996014310	-71.07001367360
Botosani	Romania	ROU	47.74841493640	26.65965409210
Botucatu	Brazil	BRA	-22.87959959020	-48.44999902500
Bouafle	Ivory Coast	CIV	6.97799710395	-5.74800242826
Bouake	Ivory Coast	CIV	7.68998150526	-5.03001367331
Bouar	Central African Republic	CAF	5.95001019177	15.59996740590
Bougouni	Mali	MLI	11.42042563780	-7.48996687970
Bouira	Algeria	DZA	36.38047833150	3.90000972354
Boulder City	United States	USA	35.97895245260	-114.83158024300
Boulder	United States	USA	40.03844626780	-105.24609297900
Boulia	Australia	AUS	-22.89959836950	139.90002884800
Boulsa	Burkina Faso	BFA	12.65699714130	-0.56899753201
Bourem	Mali	MLI	16.90037538550	-0.34998925923
Bourges	French Republic	FRA	47.08372682610	2.39999792340
Bourke	Australia	AUS	-30.10000000000	145.93333330000
Bournemouth	United Kingdom	GBR	50.72999005030	-1.90004968404
Boutilimit	Mauritania	MRT	17.55038738910	-14.70004358060
Bowen	Australia	AUS	-20.00132566450	148.20866898500
Bowling Green	United States	USA	36.99069948230	-86.44364892750
Bowling Green	United States	USA	41.37474713040	-83.65139042330
Boyarka	Russia	RUS	70.76698406900	97.50003291730
Bozeman	United States	USA	45.68009157210	-111.03783248100
Bozoum	Central African Republic	CAF	6.31699037569	16.38333044300
Bradford	United Kingdom	GBR	53.80003521640	-1.74998132466
Braganca	Brazil	BRA	-1.05002765005	-46.76999821120
Braganca Paulista	Brazil	BRA	-22.95003456750	-46.54998580080
Braganca	Portugal	PRT	41.80799701420	-6.75500342578
Braga	Portugal	PRT	41.55499452620	-8.42133121890
Brahmapur	India	IND	19.31999513650	84.79998124080
Braila	Romania	ROU	45.29199614590	27.96900353880
Brainerd	United States	USA	46.35800884920	-94.20084985530
Brandfort	South Africa	ZAF	-28.69955442430	26.47000158560
Brandon	Canada	CAN	49.83327475900	-99.94998213890
Brasilia	Brazil	BRA	-15.78334023150	-47.91605228840
Brasov	Romania	ROU	45.64753541980	25.60716019560
Bratislava	Slovakia	SVK	48.15001833000	17.11698075220
Bratsk	Russia	RUS	56.15699729320	101.61502722100
Braunschweig	Germany	DEU	52.24997479160	10.50002030300
Brazzaville	Congo (Brazzaville)	COG	-4.25918577181	15.28468949250
Bredasdorp	South Africa	ZAF	-34.52953448610	20.02998124050
Bregenz	Austria	AUT	47.51669706580	9.76670158807
Bremen	Germany	DEU	53.08000164700	8.80002070988
Bremerhaven	Germany	DEU	53.55043804840	8.57998246118
Bremerton	United States	USA	47.57359552360	-122.64201753300
Brest	Belarus	BLR	52.09998394680	23.69998978550
Brest	French Republic	FRA	48.39044293120	-4.49500756979
Breves	Brazil	BRA	-1.68001503612	-50.49000370440
Bria	Central African Republic	CAF	6.53330792127	21.98329870470
Bridgeport	United States	USA	41.17997865710	-73.19996118330
Bridgetown	Barbados	BRB	13.10200258280	-59.61652673510
Brighton	United Kingdom	GBR	50.83034568190	-0.16997440734
Brikama	Gambia, The	GMB	13.28036378880	-16.65994978990
Brindisi	Italy	ITA	40.64034751290	17.93000606150
Brisbane	Australia	AUS	-27.45503090540	153.03509273200
Bristol	United Kingdom	GBR	51.44999778150	-2.58331547180
Bristol	United States	USA	36.61152366030	-82.17600244310
Brits	South Africa	ZAF	-25.62961261110	27.77999914420
Brive	French Republic	FRA	45.15040814110	1.53333247743
Brno	Czech Republic	CZE	49.20039349270	16.60998327500
Brochet	Canada	CAN	57.88322267570	-101.66659570500
Brockville	Canada	CAN	44.58927960110	-75.69531274590
Broken Hill	Australia	AUS	-31.94995033900	141.43311356500
Brokopondo	Suriname	SUR	5.04037579235	-55.02001143560
Brookings	United States	USA	44.30676454580	-96.78803043800
Brooks	Canada	CAN	50.56705425930	-111.90000207700
Broome	Australia	AUS	-17.96177069350	122.23076810300
Brovary	Ukraine	UKR	50.49431968090	30.78090124380
Brownsville	United States	USA	25.91997987770	-97.50000248390
Brownsweg	Suriname	SUR	5.02001527803	-55.16995060380
Brownwood	United States	USA	31.70789532370	-98.98231510600
Brugge	Belgium	BEL	51.22037355460	3.23002477887
Brumado	Brazil	BRA	-14.20999957390	-41.67002527010
Brunswick	United States	USA	31.14968650210	-81.49165145030
Brus Laguna	Honduras	HND	15.75041973770	-84.47999617690
Brusque	Brazil	BRA	-27.12998614630	-48.93002140460
Brussels	Belgium	BEL	50.83331707670	4.33331660830
Bryansk	Russia	RUS	53.25999066070	34.42998083370
Bryan	United States	USA	30.67418581040	-96.36968388040
Bu'aale	Somalia	SOM	1.08330301740	42.58330252570
Bua Yai	Thailand	THA	15.58402162570	102.41859574300
Bubanza	Burundi	BDI	-3.08330098404	29.36670351250
Bucaramanga	Colombia	COL	7.13009319959	-73.12588301770
Buchanan	Liberia	LBR	5.91608461397	-10.05247196600
Buchans	Canada	CAN	48.81703187980	-56.86659122890
Bucharest	Romania	ROU	44.43337180490	26.09994665400
Budapest	Hungary	HUN	47.50000632640	19.08332067740
Budaun	India	IND	28.03000612280	79.08999385470
Buea	Cameroon	CMR	4.15500308735	9.23100351293
Buenaventura	Colombia	COL	3.87240242454	-77.05045328620
Buenos Aires	Argentina	ARG	-34.60250160850	-58.39753137370
Buffalo	United States	USA	42.87997825020	-78.88000207690
Bugrino	Russia	RUS	68.80787884440	49.30416336960
Bugt	China	CHN	48.78380393380	121.93337357500
Bugulma	Russia	RUS	54.55433026030	52.79428625370
Buguruslan	Russia	RUS	53.66301515620	52.43301631550
Buizhou	China	CHN	37.37039206850	118.02002071000
Bujumbura	Burundi	BDI	-3.37608722037	29.36000606150
Bukachacha	Russia	RUS	52.98334088040	116.91662552800
Bukama	Congo (Kinshasa)	COD	-9.20958127964	25.84001419950
Bukavu	Congo (Kinshasa)	COD	-2.50999021516	28.84003779980
Bukhara	Uzbekistan	UZB	39.78001242990	64.43001013070
Bukittinggi	Indonesia	IDN	-0.30314817414	100.36146032600
Bukoba	United Republic of Tanzania	TZA	-1.31962359732	31.79996048860
Bulaevo	Kazakhstan	KAZ	54.90531658850	70.43997920620
Bulandshahr	India	IND	28.41037050270	77.84841589250
Bulawayo	Zimbabwe	ZWE	-20.16999753950	28.58000199250
Bulgan	Mongolia	MNG	48.81059816390	103.53170609400
Bullhead City	United States	USA	35.14817628890	-114.56748783600
Buluko	Congo (Kinshasa)	COD	-0.75699888928	28.52800254060
Bulungu	Congo (Kinshasa)	COD	-4.54960732129	18.59999100610
Bumba	Congo (Kinshasa)	COD	2.18998130178	22.45996211620
Bunbury	Australia	AUS	-33.34428383510	115.65024287800
Bundaberg	Australia	AUS	-24.87906410850	152.35089676800
Bungoma	Kenya	KEN	0.57039023732	34.55999873730
Bunia	Congo (Kinshasa)	COD	1.56040732717	30.24000402700
Buon Me Thuot	Vietnam	VNM	12.66704205220	108.04998327500
Buraydah	Saudi Arabia	SAU	26.36638673810	43.96283565140
Burco	Somaliland	SOL	9.52038657525	45.54000036500
Burdur	Turkey	TUR	37.71666011090	30.28333553850
Burgas	Bulgaria	BGR	42.51460003570	27.47464310580
Burgos	Kingdom of Spain	ESP	42.35039817210	-3.67996687968
Burhanpur	India	IND	21.30039105120	76.13001948940
Buriram	Thailand	THA	15.00043967590	103.11664099000
Burketown	Australia	AUS	-17.71609047560	139.56661250700
Burley	United States	USA	42.53581321110	-113.79187626300
Burlington	United States	USA	40.80793418280	-91.11276961440
Burlington	United States	USA	44.47579815580	-73.21246688000
Burnie	Australia	AUS	-41.06660317100	145.91666418400
Burns Lake	Canada	CAN	54.21701234850	-125.76659753600
Burrel	Albania	ALB	41.62599907870	20.01600053130
Bur Safaga	Egypt	EGY	26.73372865700	33.93331864290
Bur Said	Egypt	EGY	31.25998984680	32.29000809600
Bursa	Turkey	TUR	40.19998679510	29.06999792350
Bururi	Burundi	BDI	-3.95072914746	29.61657954790
Burwash Landing	Canada	CAN	61.35037538570	-139.00000167000
Burylbaytal	Kazakhstan	KAZ	44.93874147450	74.03025101610
Busan	Korea, South	KOR	35.09505291650	129.01004756600
Busia	Uganda	UGA	0.45444440000	34.07583330000
Businga	Congo (Kinshasa)	COD	3.34037619925	20.86998164740
Busselton	Australia	AUS	-33.65640948610	115.34865921900
Buta	Congo (Kinshasa)	COD	2.81999452607	24.74002966180
Butare	Rwanda	RWA	-2.58962359732	29.73000931670
Butembo	Congo (Kinshasa)	COD	0.13000368133	29.28001094430
Butha-Buthe	Lesotho	LSO	-28.74999591130	28.25000157690
Butterworth	Malaysia	MYS	5.41707114555	100.40001094500
Butte	United States	USA	46.00389609690	-112.53383935700
Butuan	Philippines	PHL	8.94954286594	125.54359248800
Buur Gaabo	Somalia	SOM	-1.20086986836	41.85195979030
Buurhakaba	Somalia	SOM	2.78371767060	44.08329341510
Buyant-Uhaa	Mongolia	MNG	44.86660117500	110.15001013100
Buynaksk	Russia	RUS	42.83349529930	47.11303096390
Buy	Russia	RUS	58.48468467110	41.52437984090
Buzau	Romania	ROU	45.15650596020	26.80651851270
Buzmeyin	Turkmenistan	TKM	38.05166831360	58.21002803430
Buzuluk	Russia	RUS	52.78211285310	52.26176061890
Bydgoszcz	Poland	POL	53.12041261710	18.01000117870
Byron Bay	Australia	AUS	-28.65650795620	153.61288692100
Bytom	Poland	POL	50.35003908190	18.90999792350
Byumba	Rwanda	RWA	-1.57955605175	30.06001501340
Caacupe	Paraguay	PRY	-25.38700190640	-57.14000047210
Caazapa	Paraguay	PRY	-26.20001707070	-56.38000594240
Caballococha	Peru	PER	-3.91626096712	-70.50834253100
Cabanatuan	Philippines	PHL	15.50208864230	120.96170161900
Cabimas	Venezuela	VEN	10.42999513650	-71.44999048020
Cabinda	Angola	AGO	-5.55962319044	12.18999466820
Cabo de Santo Agostinho	Brazil	BRA	-8.28999916701	-35.02999129390
Cabo Frio	Brazil	BRA	-22.88998655310	-42.03997684890
Caboolture	Australia	AUS	-27.08296059290	152.94998164800
Caborca	Mexico	MEX	30.71614707340	-112.16424951400
Cabo San Lucas	Mexico	MEX	22.89275616960	-109.90451636400
Cacador	Brazil	BRA	-26.77000811890	-51.02002303220
Caceres	Brazil	BRA	-16.05004229860	-57.51001448730
Cacheu	Guinea Bissau	GNB	12.26899803110	-16.16499854010
Cachoeira do Sul	Brazil	BRA	-30.02996417360	-52.90998519040
Cachoeiro de Itapemirim	Brazil	BRA	-20.85000771200	-41.12998071450
Cacolo	Angola	AGO	-10.14962725950	19.26000239940
Cadillac	United States	USA	44.25121238110	-85.41360844090
Cadiz	Kingdom of Spain	ESP	36.53499086410	-6.22500533184
Cadiz	Philippines	PHL	10.95874839170	123.30858679100
Caen	French Republic	FRA	49.18375368150	-0.34998925923
Cafayate	Argentina	ARG	-26.08291827520	-65.96660424970
Cagayan de Oro	Philippines	PHL	8.45083945610	124.68529862400
Cagliari	Italy	ITA	39.22239788720	9.10398148462
Cahul	Moldova	MDA	45.90788128570	28.19444413120
Caibarien	Cuba	CUB	22.51579490050	-79.47223982920
Caico	Brazil	BRA	-6.45961993523	-37.10001998040
Cairns	Australia	AUS	-16.88783985860	145.76333094600
Cairo	Egypt	EGY	30.04996034650	31.24996821970
Cajabamba	Peru	PER	-7.61960081089	-78.04000167000
Cajamarca	Peru	PER	-7.15001707065	-78.53002343920
Calabar	Nigeria	NGA	4.96040651338	8.33002355819
Calabozo	Venezuela	VEN	8.93039674777	-67.43997684900
Calais	French Republic	FRA	50.95041587230	1.83331416689
Calais	United States	USA	45.16598858550	-67.24239201010
Calama	Chile	CHL	-22.45001340860	-68.91998986990
Calarasi	Romania	ROU	44.20627972320	27.32591833370
Calatrava	Equatorial Guinea	GNQ	1.11640342092	9.41858760442
Calbayog	Philippines	PHL	12.06718202610	124.60416662500
Calbuco	Chile	CHL	-41.75220107100	-73.14159105620
Caldera	Chile	CHL	-27.06962807330	-70.83002832200
Caldwell	United States	USA	43.66096417140	-116.67053776200
Calgary	Canada	CAN	51.08299175930	-114.07999821200
Cali	Colombia	COL	3.39995912568	-76.49996647310
Callao	Peru	PER	-12.07002683630	-77.13496647310
Caloundra	Australia	AUS	-26.80003212610	153.13332963000
Calucinga	Angola	AGO	-11.31958168660	16.19998246120
Calulo	Angola	AGO	-9.99961057652	14.90001013050
Caluula	Somalia	SOM	11.96695558570	50.75001826860
Camabatela	Angola	AGO	-8.18959185907	15.37000728220
Camacupa	Angola	AGO	-12.01959063840	17.46998246120
Camaguey	Cuba	CUB	21.38082541810	-77.91693424650
Camana	Peru	PER	-16.61961993530	-72.71999048020
Camaqua	Brazil	BRA	-30.83963051480	-51.81000065270
Camargo	Bolivia	BOL	-20.63958127970	-65.20998376630
Ca Mau	Vietnam	VNM	9.17735841770	105.15000524800
Cambridge Bay	Canada	CAN	69.11695558590	-105.03331526900
Cambridge	United Kingdom	GBR	52.20039125480	0.11662308615
Cameta	Brazil	BRA	-2.23961912141	-49.50998600420
Camiri	Bolivia	BOL	-20.05000486370	-63.51998356290
Camocim	Brazil	BRA	-2.89999224967	-40.85002364250
Camooweal	Australia	AUS	-19.91673134480	138.11667517000
Campana	Argentina	ARG	-34.15999631880	-58.95997766280
Campbell River	Canada	CAN	50.01708782870	-125.24998824200
Campeche	Mexico	MEX	19.82998984680	-90.49999048030
Cam Pha	Vietnam	VNM	21.04043275860	107.32000199300
Campina Grande	Brazil	BRA	-7.23001218784	-35.88001692860
Campinas	Brazil	BRA	-22.90001178100	-47.10002974610
Campoalegre	Colombia	COL	2.69000246064	-75.33001204600
Campobasso	Italy	ITA	41.56299911860	14.65599655890
Campo Belo	Brazil	BRA	-20.88959185910	-45.27998580070
Campo Grande	Brazil	BRA	-20.45003212600	-54.61662520510
Campo Maior	Brazil	BRA	-4.82003009147	-42.18001998040
Campo Murao	Brazil	BRA	-24.04960569380	-52.41998925940
Campos	Brazil	BRA	-21.74995278030	-41.32002079420
Cam Ranh	Vietnam	VNM	11.90202414850	109.22066117300
Camrose	Canada	CAN	53.01669801750	-112.81663863300
Canakkale	Turkey	TUR	40.14593324690	26.40638789750
Cananea	Mexico	MEX	30.99041973780	-110.30004805700
Canas	Costa Rica	CRI	10.42999513650	-85.10001001150
Canatlan	Mexico	MEX	24.51998781230	-104.77999739800
Canavieiras	Brazil	BRA	-15.64004148470	-38.96000980790
Canberra	Australia	AUS	-35.28302854540	149.12902624400
Cancun	Mexico	MEX	21.16995973610	-86.83000777360
Canela	Brazil	BRA	-29.36003090540	-50.81001001140
Canelones	Uruguay	URY	-34.53800400670	-56.28400149320
Cangamba	Angola	AGO	-13.69959145220	19.86001745470
Cangzhou	China	CHN	38.32038576160	116.87001338600
Caninde	Brazil	BRA	-4.35003293978	-39.30998844560
Cankiri	Turkey	TUR	40.60700101230	33.62100359330
Cankuzo	Burundi	BDI	-3.16670392087	30.51669662310
Canoas	Brazil	BRA	-29.91999672570	-51.17998742840
Canoinhas	Brazil	BRA	-26.17996661500	-50.40000919760
Can Tho	Vietnam	VNM	10.04999249160	105.77001908300
Canton	United States	USA	40.79886496890	-81.37863509290
Cantwell	United States	USA	63.39159446120	-148.95078963400
Cao Bang	Vietnam	VNM	22.66399805500	106.26800464400
Cao Lanh	Vietnam	VNM	10.46700013050	105.63599756200
Capanema	Brazil	BRA	-1.19001910513	-47.17999902500
Cap-Chat	Canada	CAN	49.09996034660	-66.68330468920
Cape Coast	Ghana	GHA	5.11037151989	-1.24998600402
Cape Coral	United States	USA	26.60290976870	-81.97968367690
Cape Dorset	Canada	CAN	64.31251971560	-76.53857863020
Cape Girardeau	United States	USA	37.30582236640	-89.51808659030
Capenda-Camulemba	Angola	AGO	-9.41959430048	18.43002722030
Cape Town	South Africa	ZAF	-33.92001096720	18.43498815780
Cap-Haitien	Haiti	HTI	19.75922240310	-72.21251601700
Capitan Arturo Prat Station	Indeterminate	ATA	-62.49950681700	-59.68331852380
Capitan Pablo Lagerenza	Paraguay	PRY	-19.91611122760	-60.78327722330
Capitao Poco	Brazil	BRA	-1.74962319042	-47.09000451820
Capitol Hill	United States	USA	15.21125368140	145.75057613000
Caracarai	Brazil	BRA	1.81623150523	-61.12767480630
Caracas	Venezuela	VEN	10.50099855440	-66.91703719240
Carahue	Chile	CHL	-38.70948606490	-73.16998885260
Caratinga	Brazil	BRA	-19.79002073280	-42.13999658360
Carazinho	Brazil	BRA	-28.29001869830	-52.80004358070
Carbondale	United States	USA	37.72683026030	-89.22024947280
Cardenas	Mexico	MEX	22.00001242980	-99.66999922870
Cardiff	United Kingdom	GBR	51.49999472970	-3.22500756979
Carhue	Argentina	ARG	-37.18286090220	-62.73331323410
Carlisle	United Kingdom	GBR	54.87999513660	-2.92998681783
Carlsbad	United States	USA	32.42056500140	-104.22829980700
Carmelo	Uruguay	URY	-33.98961912150	-58.29999210780
Carnarvon	Australia	AUS	-24.89983803430	113.65010656600
Carnarvon	South Africa	ZAF	-30.94959796270	22.13331538770
Carnot	Central African Republic	CAF	4.93368979789	15.86661779650
Carora	Venezuela	VEN	10.18998394670	-70.07999658370
Carpina	Brazil	BRA	-7.84000079461	-35.26000309400
Carson City	United States	USA	39.16384848940	-119.76639530600
Cartagena	Colombia	COL	10.39973858530	-75.51439355640
Cartagena	Kingdom of Spain	ESP	37.60042970690	-0.98002832173
Cartago	Colombia	COL	4.74998008109	-75.91002832200
Cartago	Costa Rica	CRI	9.86997763970	-83.92997806980
Cartwright	Canada	CAN	53.70140662940	-57.01214113640
Caruaru	Brazil	BRA	-8.28002561558	-35.98001082510
Carupano	Venezuela	VEN	10.67000632620	-63.23000126310
Casablanca	Morocco	MAR	33.59997621560	-7.61636743309
Casa Grande	United States	USA	32.87937420560	-111.75662581600
Cascavel	Brazil	BRA	-24.95957599000	-53.46002913570
Caserta	Italy	ITA	41.05996014310	14.33735713570
Casey Station	Indeterminate	ATA	-66.28608613750	110.53621397300
Casma	Peru	PER	-9.44000649123	-78.20999129400
Casper	United States	USA	42.86661989240	-106.31248783500
Castanhal	Brazil	BRA	-1.28959959016	-47.93003076330
Castello	Kingdom of Spain	ESP	39.97041424460	-0.05000756977
Castelo Branco	Portugal	PRT	39.81099614830	-7.48799955910
Castillos	Uruguay	URY	-34.16960813520	-53.82998071450
Castries	Saint Lucia	LCA	14.00197348930	-61.00000818040
Castro	Brazil	BRA	-24.79002561560	-50.00998132490
Castro	Chile	CHL	-42.48076158690	-73.76233415250
Catalao	Brazil	BRA	-18.18004148480	-47.95000370440
Catamarca	Argentina	ARG	-28.47000771200	-65.78000065270
Catanduva	Brazil	BRA	-21.14001585000	-48.97996667640
Catania	Italy	ITA	37.49997072250	15.07999914420
Catanzaro	Italy	ITA	38.90037619940	16.60000972360
Catio	Guinea Bissau	GNB	11.21670001890	-15.16670049370
Cat Lake	Canada	CAN	51.71703574530	-91.79998864920
Cauquenes	Chile	CHL	-35.96004148480	-72.31998905610
Caxias	Brazil	BRA	-4.83300087598	-43.35002608390
Caxias do Sul	Brazil	BRA	-29.17999021530	-51.17003971520
Caxito	Angola	AGO	-8.57954221714	13.65998246120
Cayambe	Ecuador	ECU	0.05037029917	-78.15999434580
Cayenne	French Republic	FRA	4.93299216605	-52.33002059080
Cazombo	Angola	AGO	-11.88957273470	22.90003861360
Cebu	Philippines	PHL	10.31997601210	123.90007523500
Cedar City	United States	USA	37.67742759100	-113.06109399600
Cedar Rapids	United States	USA	41.96998211570	-91.66002303240
Ceduna	Australia	AUS	-32.09913463810	133.66226738900
Ceerigaabo	Somaliland	SOL	10.58329807460	47.33330460510
Celaya	Mexico	MEX	20.53002463680	-100.80000777400
Celeken	Turkmenistan	TKM	39.43615487670	53.12259119490
Central Coast	Australia	AUS	-33.42004148480	151.30000484100
Centralia	United States	USA	46.71641074530	-122.95297082700
Ceres	Brazil	BRA	-15.30331785190	-49.60519983070
Cerrillos	Argentina	ARG	-24.89963132850	-65.48330041670
Cerro de Pasco	Peru	PER	-10.69000771190	-76.26998051120
Ceske Budejovice	Czech Republic	CZE	48.98001934720	14.46003698590
Ceuta	Kingdom of Spain	ESP	35.88898378400	-5.30699935039
Chabahar	Iran	IRN	25.30040529280	60.62993200570
Chacabuco	Argentina	ARG	-34.65004392620	-60.48998763190
Chachapoyas	Peru	PER	-6.22960813510	-77.87001204600
Chachoengsao	Thailand	THA	13.67900105290	101.07600365400
Chadron	United States	USA	42.82791424470	-103.00307743500
Chagda	Russia	RUS	60.10001242990	133.89998164800
Chaghcharan	Afghanistan	AFG	34.51670110350	65.25000062520
Chaguaramas	Venezuela	VEN	9.21593487440	-63.75226912600
Chainat	Thailand	THA	15.17900401760	100.12599969700
Chaiyaphum	Thailand	THA	15.80400819800	102.03861893600
Chake Chake	United Republic of Tanzania	TZA	-5.23953936882	39.77001664100
Chalatenango	El Salvador	SLV	14.07200405810	-89.09399648870
Chalkida	Greece	GRC	38.46399456690	23.61239823270
Challapata	Bolivia	BOL	-18.89958412800	-66.77999129400
Chaman	Pakistan	PAK	30.92504905090	66.44632116580
Chamdo	China	CHN	31.16668804830	97.23327917380
Chamical	Argentina	ARG	-30.34958290730	-66.31666040210
Champasak	Laos	LAO	14.88330010860	105.86670362700
Champoton	Mexico	MEX	19.35043255510	-90.72000289080
Chanaral	Chile	CHL	-29.03002520880	-71.43001753910
Chancay	Peru	PER	-11.55961871450	-77.26997115240
Chandigarh	India	IND	30.71999696760	76.78000565480
Chandrapur	India	IND	19.96998130190	79.30000687550
Changchun	China	CHN	43.86500856430	125.33998734400
Changde	China	CHN	29.02999676410	111.68004593800
Changhua	Taiwan	TWN	24.07340008440	120.51340856800
Changling	China	CHN	44.26999676420	123.98999222700
Changping	China	CHN	40.22476564440	116.19439571000
Changsha	China	CHN	28.19996990870	112.96999304100
Changting	China	CHN	25.86698569640	116.31666214900
Changyon	Korea, North	PRK	38.25173362130	125.10206905000
Changzhi	China	CHN	36.18387534490	113.10528194100
Changzhou	China	CHN	31.77998394680	119.96997920600
Channel-Port aux Basques	Canada	CAN	47.56700482080	-59.15004358080
Chanthaburi	Thailand	THA	12.61327272440	102.09789180400
Chaoyang	China	CHN	41.55042116200	120.41997757900
Chaozhou	China	CHN	23.68003908180	116.63002803500
Chapadinha	Brazil	BRA	-3.73952756868	-43.35999963540
Chapaev	Kazakhstan	KAZ	50.19149578770	51.14492956420
Chapayevsk	Russia	RUS	52.97432334300	49.72434444050
Chapleau	Canada	CAN	47.83370688790	-83.40001041840
Charagua	Bolivia	BOL	-19.79958087280	-63.21995019700
Charana	Bolivia	BOL	-17.59961179730	-69.46659733240
Charata	Argentina	ARG	-27.21628578820	-61.19999597330
Charikar	Afghanistan	AFG	35.01826173810	69.16791214890
Charleroi	Belgium	BEL	50.42039654450	4.45000199242
Charleston	United States	USA	32.79237693180	-79.99210473810
Charleston	United States	USA	38.34973797510	-81.63272811050
Charleville	Australia	AUS	-26.40000486370	146.25002884800
Charlottesville	United States	USA	38.02918906560	-78.47692590500
Charlottetown	Canada	CAN	46.24928163560	-63.13132511560
Charlotte	United States	USA	35.20499452620	-80.83003808770
Charters Towers	Australia	AUS	-20.08090737020	146.25871048900
Chascomus	Argentina	ARG	-35.56621539430	-58.01662439130
Chattanooga	United States	USA	35.06998984680	-85.25000085620
Chau Doc	Vietnam	VNM	10.70039206840	105.11667394900
Chauk	Myanmar	MMR	20.90847698870	94.82303869530
Cheboksary	Russia	RUS	56.12997051910	47.25002518590
Chegdomyn	Russia	RUS	51.11779583650	133.02411779700
Chegga	Mauritania	MRT	25.38040040990	-5.77996789695
Chelyabinsk	Russia	RUS	55.15499127110	61.43866817100
Chelyuskin	Russia	RUS	77.71697328610	104.25000850300
Chemnitz	Germany	DEU	50.82998394680	12.91997595080
Chengde	China	CHN	40.96037965810	117.93000036500
Chengdu	China	CHN	30.67000001930	104.07001949000
Chennai	India	IND	13.08998781220	80.27999873750
Chenzhou	China	CHN	25.80042645160	113.03009273200
Cheongju	Korea, South	KOR	36.64389894520	127.50119909600
Chepes	Argentina	ARG	-31.34998696010	-66.59995060390
Cherbourg	French Republic	FRA	49.65039186510	-1.64998742818
Cheremkhovo	Russia	RUS	53.15880820630	103.07385290400
Cherepanovo	Russia	RUS	54.23362632150	83.36880244850
Cherepovets	Russia	RUS	59.14043275870	37.90997513710
Cherkasy	Ukraine	UKR	49.43472027500	32.07090002310
Cherkessk	Russia	RUS	44.29040895490	42.06000606160
Cherlak	Russia	RUS	54.16047833160	74.82002193090
Chernihiv	Ukraine	UKR	51.50492982900	31.30154129920
Chernivtsi	Ukraine	UKR	48.30530600900	25.92155960970
Chernobyl	Ukraine	UKR	51.38940716460	30.09887569040
Chernogorsk	Russia	RUS	53.83132529610	91.22268998100
Chernyakhovsk	Russia	RUS	54.63163820300	21.81085445020
Chernyshevskiy	Russia	RUS	63.01275453610	112.47141882200
Cherskiy	Russia	RUS	68.75005291660	161.33003861400
Chesterfield Inlet	Canada	CAN	63.33829022130	-90.70008162610
Chester	United Kingdom	GBR	53.20002016100	-2.91998742818
Chetumal	Mexico	MEX	18.50001934710	-88.29999556650
Chevery	Canada	CAN	50.48132305820	-59.60978296060
Cheyenne	United States	USA	41.14000693670	-104.81971073600
Chiang Mai	Thailand	THA	18.79997519830	98.98004593810
Chiang Rai	Thailand	THA	19.91187115370	99.82645422260
Chiayi	Taiwan	TWN	23.47545208640	120.43506709700
Chibemba	Angola	AGO	-15.74959552120	14.08000850290
Chibia	Angola	AGO	-15.18962970090	13.69000646840
Chicago	United States	USA	41.82999066070	-87.75005497410
Chiclayo	Peru	PER	-6.76290891635	-79.83658451510
Chico	United States	USA	39.72862021790	-121.83639815500
Chicoutimi	Canada	CAN	48.43330853180	-71.06670638190
Chifeng	China	CHN	42.27001548160	118.94998978600
Chignik	United States	USA	56.29567099930	-158.40222823300
Chihuahua	Mexico	MEX	28.64498150530	-106.08498234200
Chilca	Peru	PER	-12.51961179720	-76.73997766290
Childress	United States	USA	34.42488710430	-100.21391951700
Chilecito	Argentina	ARG	-29.16552081420	-67.49999902510
Chililabombwe	Zambia	ZMB	-12.36959511430	27.81999670280
Chillan	Chile	CHL	-36.60000242230	-72.10599694990
Chilliwack	Canada	CAN	49.16664878240	-121.94998295300
Chilpancingo	Mexico	MEX	17.54997397760	-99.50000960470
Chimaltenango	Guatemala	GTM	14.66199914210	-90.81999850100
Chimbote	Peru	PER	-9.07000323602	-78.56999515960
Chimboy	Uzbekistan	UZB	42.93113791820	59.77075964240
Chimoio	Mozambique	MOZ	-19.12003578810	33.47003942740
Chinandega	Nicaragua	NIC	12.63037762340	-87.13004113950
Chincha Alta	Peru	PER	-13.41960854200	-76.13998844570
Chingola	Zambia	ZMB	-12.53961057650	27.85002071000
Chinhoyi	Zimbabwe	ZWE	-17.35962644570	30.18000768910
Chiniot	Pakistan	PAK	31.71998760890	72.97997920620
Chinsali	Zambia	ZMB	-10.54960284540	32.05999629590
Chipata	Zambia	ZMB	-13.62956988640	32.64001257200
Chiquimula	Guatemala	GTM	14.79699905650	-89.54399653410
Chiquinquira	Colombia	COL	5.62039206840	-73.81994917980
Chiradzulu	Malawi	MWI	-15.70000000000	35.18333330000
Chirala	India	IND	15.86041302380	80.33999507540
Chiramba	Mozambique	MOZ	-16.89210976270	34.65585851920
Chirchiq	Uzbekistan	UZB	41.45497479150	69.55998124070
Chiredzi	Zimbabwe	ZWE	-21.04958209350	31.66002071000
Chiromo	Malawi	MWI	-16.55001178100	35.13324540070
Chisinau	Moldova	MDA	47.00502361970	28.85771113970
Chistopol	Russia	RUS	55.36477174800	50.64067093790
Chitado	Angola	AGO	-17.31962888710	13.92001826850
Chita	Russia	RUS	52.05502545070	113.46500158600
Chitipa	Malawi	MWI	-9.71621702183	33.26664098990
Chitre	Panama	PAN	7.97001609185	-80.42003727390
Chittagong	Bangladesh	BGD	22.32999228820	91.79996740620
Chitungwiza	Zimbabwe	ZWE	-18.00000079470	31.10000321320
Chivilcoy	Argentina	ARG	-34.89995115280	-60.03998925950
Chlef	Algeria	DZA	36.17041363430	1.31996048850
Choele Choel	Argentina	ARG	-39.26660968150	-65.68331404790
Chokurdakh	Russia	RUS	70.61831097330	147.89457963000
Cholpon Ata	Kyrgyzstan	KGZ	42.65133587550	77.08107254930
Choluteca	Honduras	HND	13.30067262670	-87.19081262380
Choma	Zambia	ZMB	-16.80947914750	26.97002274450
Chon Buri	Thailand	THA	13.40040814100	100.99997432400
Chonchi	Chile	CHL	-42.61002317430	-73.80994979010
Chone	Ecuador	ECU	-0.68958453482	-80.09000573900
Chongjin	Korea, North	PRK	41.78461875310	129.78999995800
Chongju	Korea, North	PRK	39.68128460600	125.21632564200
Chongqing	China	CHN	29.56497702940	106.59498164800
Chosan	Korea, North	PRK	40.82547833160	125.80083776800
Chosica	Peru	PER	-11.93003538120	-76.71000533210
Chos Malal	Argentina	ARG	-37.38295204800	-70.26657434250
Chota	Peru	PER	-6.54958860385	-78.65004195320
Choybalsan	Mongolia	MNG	48.06658673000	114.50602331400
Christchurch	New Zealand	NZL	-43.53503131230	172.63002071100
Christiansted	United States	USA	17.75037518210	-64.74998600430
Chukai	Malaysia	MYS	4.23324159639	103.44788692100
Chulucanas	Peru	PER	-5.08957436231	-80.17000085620
Chumbicha	Argentina	ARG	-28.86662432990	-66.23330631680
Chumikan	Russia	RUS	54.71139449990	135.31451410600
Chumphon	Thailand	THA	10.51267742810	99.18721675520
Chuncheon	Korea, South	KOR	37.87470237130	127.73415645300
Chuquicamata	Chile	CHL	-22.31999550500	-68.92998925950
Churchill	Canada	CAN	58.76598533030	-94.16599410170
Churchill Falls	Canada	CAN	53.52640850740	-63.98067895670
Chur	Switzerland	CHE	46.85002016100	9.50002966171
Chusovoy	Russia	RUS	58.29343019520	57.81304968140
Chuxiong	China	CHN	25.03641623840	101.54557409600
Ciego de Avila	Cuba	CUB	21.83999635720	-78.76194726740
Cienaga	Colombia	COL	11.01039898570	-74.25000044930
Cienfuegos	Cuba	CUB	22.14444805800	-80.44029443530
Cilacap	Indonesia	IDN	-7.71881956089	109.01540238300
Cincinnati	United States	USA	39.16188478500	-84.45692264990
Circle	United States	USA	65.82589031900	-144.06051965500
Cirebon	Indonesia	IDN	-6.73329832065	108.56664424500
Ciudad Altamirano	Mexico	MEX	18.32039206840	-100.65001692900
Ciudad Bolivar	Venezuela	VEN	8.09998231906	-63.60000451830
Ciudad Camargo	Mexico	MEX	27.69041444800	-105.17005110900
Ciudad Constitucion	Mexico	MEX	25.04000775040	-111.65999088700
Ciudad Cortes	Costa Rica	CRI	8.96036907850	-83.53000248380
Ciudad del Carmen	Mexico	MEX	18.65365928380	-91.82448019070
Ciudad del Este	Paraguay	PRY	-25.51669960650	-54.61605676430
Ciudad Guayana	Venezuela	VEN	8.37001751600	-62.61998681810
Ciudad Guzman	Mexico	MEX	19.71041058250	-103.46000044900
Ciudad Hidalgo	Mexico	MEX	19.67997316380	-100.56999597300
Ciudad Juarez	Mexico	MEX	31.69037701320	-106.49004805700
Ciudad Madero	Mexico	MEX	22.31890769350	-97.83610599950
Ciudad Mante	Mexico	MEX	22.73335268040	-98.95001733580
Ciudad Obregon	Mexico	MEX	27.46660381980	-109.92498051100
Ciudad Valles	Mexico	MEX	21.97998781230	-99.02001306330
Ciudad Victoria	Mexico	MEX	23.71995912580	-99.12998051130
Civitavecchia	Italy	ITA	42.10041343080	11.79999263370
Clare	Australia	AUS	-33.83288450240	138.60000484100
Clarksburg	United States	USA	39.28327272450	-80.33691573250
Clarksville	United States	USA	36.53008160300	-87.35943282240
Cleburne	United States	USA	32.35152528790	-97.39248966650
Clermont-Ferrand	French Republic	FRA	45.77998211580	3.08000809593
Cleveland	United States	USA	41.46998679510	-81.69499821140
Cliza	Bolivia	BOL	-17.58999998080	-65.92999149740
Cloncurry	Australia	AUS	-20.69999102900	140.49999222700
Clovis	United States	USA	34.40506919250	-103.20477055000
Cluj-Napoca	Romania	ROU	46.78842185370	23.59844559600
Coalcoman	Mexico	MEX	18.78038983050	-103.14996769400
Coari	Brazil	BRA	-4.07997190462	-63.12998152840
Coatzacoalcos	Mexico	MEX	18.12040427550	-94.42000960470
Cobalt	Canada	CAN	47.38370851550	-79.68331221690
Coban	Guatemala	GTM	15.46999757790	-90.37999780450
Cobija	Bolivia	BOL	-11.03334592810	-68.73330875820
Cobram	Australia	AUS	-35.91963051480	145.65001379300
Coburg	Germany	DEU	50.26660748200	10.96660681020
Cochabamba	Bolivia	BOL	-17.41001096720	-66.16997684900
Cochrane	Canada	CAN	49.06701662100	-81.01656417000
Cochrane	Chile	CHL	-47.26627642950	-72.54994917980
Codo	Brazil	BRA	-4.47958575554	-43.87996789710
Cody	United States	USA	44.52321128240	-109.05710066900
Coeur d'Alene	United States	USA	47.67808331210	-116.77944584300
Coffeyville	United States	USA	37.03806093250	-95.62631840190
Coffs Harbour	Australia	AUS	-30.30705320360	153.11229732200
Coihaique	Chile	CHL	-45.56999753960	-72.07000431490
Coimbatore	India	IND	10.99996034640	76.95002111710
Coimbra	Portugal	PRT	40.20037436830	-8.41668033999
Cojutepeque	El Salvador	SLV	13.71670203660	-88.93330159560
Colac	Australia	AUS	-38.33953448610	143.58001094500
Cold Bay	United States	USA	55.20000144360	-162.71509159500
Colesberg	South Africa	ZAF	-30.71953448610	25.10000768910
Colider	Brazil	BRA	-10.81728676470	-55.45057946940
Colima	Mexico	MEX	19.22997479140	-103.72001041800
Colinas	Brazil	BRA	-6.03954221713	-44.23999760090
Collipulli	Chile	CHL	-37.95997109100	-72.43000818040
Cologne	Germany	DEU	50.93000368150	6.95000443383
Colombo	Sri Lanka	LKA	6.93196575818	79.85775060930
Colon	Cuba	CUB	22.71958091120	-80.90579573740
Colonia del Sacramento	Uruguay	URY	-34.47999900540	-57.84000247340
Colon	Panama	PAN	9.36502138156	-79.87498010430
Colorado Springs	United States	USA	38.86296246240	-104.79198633000
Columbia	United States	USA	34.03997519840	-80.89998213880
Columbia	United States	USA	35.61499534000	-87.03526656260
Columbia	United States	USA	38.95207846990	-92.33390954770
Columbus	United States	USA	32.47043275860	-84.98001733570
Columbus	United States	USA	39.97997438460	-82.99000960460
Comallo	Argentina	ARG	-41.03332354870	-70.26657434250
Comandante Fontana	Argentina	ARG	-25.33329994830	-59.68331852380
Comayagua	Honduras	HND	14.46039512020	-87.64998356300
Combarbala	Chile	CHL	-31.18002317430	-70.99999210780
Comilla	Bangladesh	BGD	23.47041363420	91.16998002010
Comodoro Rivadavia	Argentina	ARG	-45.87003090540	-67.49999902510
Como	Italy	ITA	45.81000612290	9.08000362004
Comondante Luis Piedrabuena	Argentina	ARG	-49.97454864670	-68.90347272830
Compostela	Mexico	MEX	21.23042116190	-104.89999007300
Conakry	Guinea	GIN	9.53152284641	-13.68023502750
Conceicao do Araguaia	Brazil	BRA	-8.25000160841	-49.29002527020
Concepcion	Chile	CHL	-36.83001422250	-73.05002201510
Concepcion del Uruguay	Argentina	ARG	-32.47999550500	-58.23999576990
Concepcion	Paraguay	PRY	-23.40638914100	-57.43441186690
Concordia	Argentina	ARG	-31.38957110720	-58.02998274900
Concordia	Brazil	BRA	-27.23003171920	-52.03001306310
Concordia Research Station	Indeterminate	ATA	-74.66630938860	124.16703568400
Concord	United States	USA	43.20807191880	-71.53804712080
Conroe	United States	USA	30.31206321110	-95.45586368990
Conselheiro Lafaiete	Brazil	BRA	-20.67001869830	-43.78999922850
Constanta	Romania	ROU	44.20266237290	28.60997432320
Constantine	Algeria	DZA	36.35998862610	6.59994828149
Constitucion	Chile	CHL	-35.32958901090	-72.41998295260
Contamana	Peru	PER	-7.34003131219	-75.01997929050
Conway	United States	USA	35.09128053690	-92.45131840180
Cooma	Australia	AUS	-36.23955930710	149.12003454500
Coos Bay	United States	USA	43.36661521310	-124.21658878800
Copiapo	Chile	CHL	-27.35999794640	-70.33998071460
Coquimbo	Chile	CHL	-29.95291461310	-71.34361454430
Coracora	Peru	PER	-15.01961423870	-73.78997684900
Coral Gables	United States	USA	25.71541872050	-80.29107873710
Coral Harbour	Canada	CAN	64.15377016110	-83.17658736340
Coral Springs	United States	USA	26.27083701480	-80.27082157560
Cordoba	Argentina	ARG	-31.39995807010	-64.18229455730
Cordoba	Kingdom of Spain	ESP	37.87999920560	-4.77000370423
Cordoba	Mexico	MEX	18.92038128560	-96.91998620790
Cordova	United States	USA	60.54277610180	-145.75749617700
Cork	Ireland	IRL	51.89860089020	-8.49577111961
Corner Brook	Canada	CAN	48.94999534010	-57.93334782070
Cornwall	Canada	CAN	45.01705710760	-74.73333012050
Coroata	Brazil	BRA	-4.12958127962	-44.15000309400
Coro Coro	Bolivia	BOL	-17.16961220420	-68.44996687990
Coroico	Bolivia	BOL	-16.18962034220	-67.72001143560
Coronel Bogado	Paraguay	PRY	-27.17003538130	-56.25003971520
Coronel	Chile	CHL	-37.02995033900	-73.16001530120
Coronel Oviedo	Paraguay	PRY	-25.44998533240	-56.43995060390
Coronel Suarez	Argentina	ARG	-37.46661619190	-61.91661889810
Coro	Venezuela	VEN	11.42001222630	-69.67999515960
Corovode	Albania	ALB	40.51670402620	20.23329662780
Corozal	Belize	BLZ	18.39799811390	-88.38800050370
Corpus Christi	United States	USA	27.74281435040	-97.40189477720
Corrientes	Argentina	ARG	-27.48996417360	-58.80998681810
Corriverton	Guyana	GUY	5.90003908175	-57.16998356280
Coruh	Turkey	TUR	41.18300114330	41.81799653530
Corumba	Brazil	BRA	-19.01601112990	-57.65000594240
Corum	Turkey	TUR	40.51999310210	34.95000077180
Corvallis	United States	USA	44.57235556950	-123.27997929100
Cotabato	Philippines	PHL	7.21690960584	124.24842606500
Cotonou	Benin	BEN	6.40000856417	2.51999059918
Cottbus	Germany	DEU	51.77041749990	14.32996740590
Cottica	Suriname	SUR	3.85000917451	-54.23328943030
Cotui	Dominican Republic	DOM	19.05900306360	-70.15200260480
Council Bluffs	United States	USA	41.26227337550	-95.86080021340
Courtenay	Canada	CAN	49.68333559070	-124.99997766300
Coventry	United Kingdom	GBR	52.42040366530	-1.49999658345
Covilha	Portugal	PRT	40.28334088040	-7.49999210756
Covington	United States	USA	39.08400840150	-84.50859908220
Cowell	Australia	AUS	-33.68286781950	136.91664505900
Cowra	Australia	AUS	-33.82962888720	148.68000972400
Cozumel	Mexico	MEX	20.51000001930	-86.95000044940
Cradock	South Africa	ZAF	-32.19954750690	25.61000239940
Craig	United States	USA	40.51728008940	-107.55039677100
Craiova	Romania	ROU	44.32627239900	23.82587357450
Cranbourne	Australia	AUS	-38.09960081100	145.28336950600
Cranbrook	Canada	CAN	49.51667909660	-115.76666528500
Crateus	Brazil	BRA	-5.16559039421	-40.66600386710
Crato	Brazil	BRA	-7.22959877638	-39.42000756990
Crato	Brazil	BRA	-7.46389972039	-63.03996118330
Crescent City	United States	USA	41.75645509750	-124.20049157900
Creston	Canada	CAN	49.09996034660	-116.51669702300
Crestview	United States	USA	30.75420676580	-86.57260746430
Criciuma	Brazil	BRA	-28.68002073280	-49.38996749020
Cristalina	Brazil	BRA	-16.76999835320	-47.61002445640
Crookston	United States	USA	47.77376222640	-96.60773136570
Crotone	Italy	ITA	39.08333660790	17.12333695340
Cruzeiro do Sul	Brazil	BRA	-7.62998777378	-72.66996769380
Cuamba	Mozambique	MOZ	-14.78960243850	36.53998124060
Cuangar	Namibia	NAM	-17.60953367230	18.61998978540
Cuauhtemoc	Mexico	MEX	28.42574424130	-106.86958561400
Cubal	Angola	AGO	-13.03958005900	14.23999873720
Cucuta	Colombia	COL	7.92001914360	-72.51997684900
Cuddalore	India	IND	11.72040732720	79.77000402720
Cuenca	Ecuador	ECU	-2.89999224967	-78.99999475270
Cuencame	Mexico	MEX	24.87040569970	-103.69998580100
Cuernavaca	Mexico	MEX	18.92110475560	-99.23999963560
Cuevo	Bolivia	BOL	-20.45003212600	-63.52998295250
Cuiaba	Brazil	BRA	-15.56960650750	-56.08498519040
Cuilapa	Guatemala	GTM	14.27900409220	-90.29799850120
Cuito Caunavale	Angola	AGO	-15.15960569370	19.16998205430
Culiacan	Mexico	MEX	24.82999472960	-107.37996789700
Cumana	Venezuela	VEN	10.44999391570	-64.18002079430
Cumberland	United States	USA	39.65317262680	-78.76277409030
Curanilahue	Chile	CHL	-37.48000038780	-73.34000431490
Curepipe	Mauritius	MUS	-20.31619016640	57.51663366580
Curico	Chile	CHL	-34.97999794640	-71.24002913580
Curitiba	Brazil	BRA	-25.42001300170	-49.31999760090
Curvelo	Brazil	BRA	-18.75959267290	-44.42998600420
Cusco	Peru	PER	-13.52502846390	-71.97215499030
Cutral Co	Argentina	ARG	-38.94001462940	-69.24002201500
Cuttack	India	IND	20.47000246070	85.88994055070
Cuya	Chile	CHL	-19.11667682000	-70.13330082360
Cyangugu	Rwanda	RWA	-2.47960447298	28.89998246130
Daan	China	CHN	45.49999920560	124.29999914500
Dabola	Guinea	GIN	10.74799800320	-11.10899648940
Dabou	Ivory Coast	CIV	5.32035870251	-4.38994938294
Daegu	Korea, South	KOR	35.86678875630	128.60697139400
Daejeon	Korea, South	KOR	36.33554567370	127.42502803500
Dagupan	Philippines	PHL	16.04789512020	120.34080928500
Dahuk	Iraq	IRQ	36.86670012730	43.00000262540
Dajabon	Dominican Republic	DOM	19.54799999520	-71.70499757430
Dakar	Senegal	SEN	14.71583172500	-17.47313012840
Dalaba	Guinea	GIN	10.65600001060	-12.27200356600
Dalandzadgad	Mongolia	MNG	43.58355287580	104.44028112700
Da Lat	Vietnam	VNM	11.93042034800	108.41998653100
Dalby	Australia	AUS	-27.19385821660	151.26574336700
Dalhart	United States	USA	36.06080792140	-102.51861088200
Dalian	China	CHN	38.92283839320	121.62983083800
Dali	China	CHN	25.70001914370	100.17997269600
Dali	China	CHN	34.79525209460	109.93777502300
Dallas	United States	USA	32.82002382310	-96.84001692890
Dalnegorsk	Russia	RUS	44.53721559560	135.51724727300
Dalnerechensk	Russia	RUS	45.92728578600	133.72231807400
Daloa	Ivory Coast	CIV	6.88997865695	-6.45000451804
Dalton	United States	USA	34.76972393700	-84.97030216650
Damanhur	Egypt	EGY	31.05044191390	30.47001582720
Daman	India	IND	20.41700827940	72.85001297900
Damascus	Syria	SYR	33.50003399560	36.29999588900
Damaturu	Nigeria	NGA	11.74899608100	11.96600457250
Da Nang	Vietnam	VNM	16.06003908180	108.24997106800
Dandeldhura	Nepal	NPL	29.30000415970	80.60000454740
Dandong	China	CHN	40.14360780750	124.39358516300
Dangriga	Belize	BLZ	16.97003521620	-88.22000044940
Danjiangkou	China	CHN	32.52001629540	111.50000524800
Danville	United States	USA	36.58625388490	-79.39531945970
Daqing	China	CHN	46.57995912590	125.00000809600
Dar'a	Syria	SYR	32.62500013770	36.10500350660
Dar es Salaam	United Republic of Tanzania	TZA	-6.80001259474	39.26834183630
Darhan	Mongolia	MNG	49.61669883130	106.35003535900
Darnah	Libya	LBY	32.76481112860	22.63913928250
Darregueira	Argentina	ARG	-37.69957354860	-63.16659428060
Daru	Papua New Guinea	PNG	-9.10915195792	143.23372259400
Darwin	Australia	AUS	-12.42535398470	130.85003861400
Dasoguz	Turkmenistan	TKM	41.83999005030	59.96495967490
Datong	China	CHN	40.08001995750	113.29999873800
Daugavpils	Latvia	LVA	55.87995993970	26.50999914420
Dauphin	Canada	CAN	51.15001609200	-100.04995019700
Davangere	India	IND	14.47000693660	75.92000646860
Davao	Philippines	PHL	7.11001690564	125.62999548200
Davenport	United States	USA	41.55398683580	-90.58753035660
David	Panama	PAN	8.43332114556	-82.43332523770
Davis Station	Indeterminate	ATA	-68.77767438930	78.14073508940
Dawei	Myanmar	MMR	14.09796246230	98.19497757870
Dawmat al Jandal	Saudi Arabia	SAU	29.81529766750	39.86639318720
Dawra	Morocco	MAR	27.46290895490	-12.99218916980
Dawson	Canada	CAN	64.06664369620	-139.41666874400
Dawson Creek	Canada	CAN	55.76696942050	-120.23326603400
Dawwah	Oman	OMN	20.63301576640	58.90802160530
Dayr az Zawr	Syria	SYR	35.33038738920	40.12999466830
Daytona Beach	United States	USA	29.21055421860	-81.02307540050
Dayton	United States	USA	39.75037599590	-84.19998742850
De Aar	South Africa	ZAF	-30.64997800820	24.00002315140
Dease Lake	Canada	CAN	58.45034568190	-130.03328800600
Debre Birhan	Ethiopia	ETH	9.68037680963	39.53003128940
Debrecen	Hungary	HUN	47.53046958320	21.63003861360
Debre Markos	Ethiopia	ETH	10.33997479140	37.72001257200
Decatur	United States	USA	39.84070639960	-88.95473596370
Dedougou	Burkina Faso	BFA	12.45500100210	-3.46400043904
Dedza	Malawi	MWI	-14.36666670000	34.33333330000
Deer Lake	Canada	CAN	49.17440024730	-57.42691878420
Deer Lake	Canada	CAN	52.61703249010	-94.06659448420
Dehibat	Tunisia	TUN	32.01704957990	10.70000809600
Dehra Dun	India	IND	30.32040895490	78.05000565480
De Kastri	Russia	RUS	51.46658591620	140.78333410600
Delano	United States	USA	35.76193727520	-119.24306807600
Delemont	Switzerland	CHE	47.36999712580	7.34499948764
Delhi	India	IND	28.66999289860	77.23000402720
Delicias	Mexico	MEX	28.19996990870	-105.49997929100
Deline	Canada	CAN	65.18334555980	-123.41666345400
Del Rio	United States	USA	29.36294801740	-100.89638432000
Demba	Congo (Kinshasa)	COD	-5.50960040398	22.25997432320
Dembi Dolo	Ethiopia	ETH	8.53372845350	34.79998408890
Deming	United States	USA	32.26109153140	-107.75578475100
Denali Park	United States	USA	63.73309816400	-148.91409936700
Dengzhou	China	CHN	32.68036826480	112.08002152400
Deniliquin	Australia	AUS	-35.52957680380	144.95000484100
Denizli	Turkey	TUR	37.77039349270	29.08002315140
Denow	Uzbekistan	UZB	38.27715842600	67.88716345100
Denpasar	Indonesia	IDN	-8.65002887079	115.21998490300
Denton	United States	USA	33.21576194160	-97.12883650900
Denver	United States	USA	39.73918804840	-104.98401595200
Dera Ghazi Khan	Pakistan	PAK	30.06039898580	70.63505773810
Dera Ismail Khan	Pakistan	PAK	31.82899904280	70.89855586640
Derbent	Russia	RUS	42.05780621240	48.27740433630
Derby	Australia	AUS	-17.29999184280	123.96663448000
Derzhavinsk	Kazakhstan	KAZ	51.10206036290	66.30746659230
Desaguadero	Peru	PER	-16.56458453490	-69.04499515960
Dese	Ethiopia	ETH	11.12997825010	39.63002518590
Des Moines	United States	USA	41.57998008120	-93.61998091810
Detroit	United States	USA	42.32996014310	-83.08005578790
Deva	Romania	ROU	45.88332304240	22.91667357040
Devils Lake	United States	USA	48.11221701970	-98.85968693210
Devonport	Australia	AUS	-41.19266756540	146.33110174400
Deyang	China	CHN	31.13333091130	104.39997351000
Dezful	Iran	IRN	32.38038657530	48.47000239950
Dezhou	China	CHN	37.45041302390	116.30002233800
Dhaka	Bangladesh	BGD	23.72305971170	90.40857946670
Dhamar	Yemen	YEM	14.55746929830	44.38746089560
Dhanbad	India	IND	23.80039349260	86.41998571670
Dhangarhi	Nepal	NPL	28.69499706000	80.59300260280
Dhule	India	IND	20.89997621560	74.76999914440
Dhuusa Mareeb	Somalia	SOM	5.74199998430	46.50800449990
Diamantina	Brazil	BRA	-18.23998614620	-43.60998437660
Diapaga	Burkina Faso	BFA	12.07700107640	1.79600457130
Dibaya	Congo (Kinshasa)	COD	-6.50953936882	22.87001460640
Dibrugarh	India	IND	27.48332114560	94.89998490290
Dickinson	United States	USA	46.88399741520	-102.78880110900
Dickson	Russia	RUS	73.50697186200	80.54509883520
Diebougou	Burkina Faso	BFA	10.95200112830	-3.24800041060
Diego de Almagro	Chile	CHL	-26.36961912150	-70.04999841480
Diekirch	Luxembourg	LUX	49.88330105090	6.16670155545
Dieppe	French Republic	FRA	49.93373374340	1.08333410503
Diffa	Niger	NER	13.31705405570	12.60888382840
Digby	Canada	CAN	44.62258506170	-65.76049279950
Dijon	French Republic	FRA	47.33040427560	5.03001826846
Dikhil	Djibouti	DJI	11.10400200640	42.37200057830
Dila	Ethiopia	ETH	6.41042136528	38.31000239950
Dili	East Timor	TLS	-8.55938840855	125.57945593200
Dillingham	United States	USA	59.05656031140	-158.48031207300
Dillon	United States	USA	45.21567547510	-112.68398523100
Dilolo	Congo (Kinshasa)	COD	-10.69961952830	22.33330318060
Dimbokro	Ivory Coast	CIV	6.65045839327	-4.71000736634
Dimitrovgrad	Russia	RUS	54.25042116200	49.56001338580
Dindigul	India	IND	10.37997235000	78.00003454480
Dinguiraye	Guinea	GIN	11.29899603560	-10.72600143950
Dingzhou	China	CHN	38.50042645170	114.99999833100
Diourbel	Senegal	SEN	14.66038291320	-16.24000126290
Dire Dawa	Ethiopia	ETH	9.58999472955	41.86001826860
Dirj	Libya	LBY	30.16791180320	10.45666377630
Dispur	India	IND	26.14402304990	91.76663610740
Diu	India	IND	20.71967333540	70.99039497470
Divinopolis	Brazil	BRA	-20.14953367230	-44.89998315590
Divo	Ivory Coast	CIV	5.83900203727	-5.36000348347
Diyarbakir	Turkey	TUR	37.92043601380	40.23004024130
Djado	Niger	NER	21.01498211570	12.30750687530
Djambala	Congo (Brazzaville)	COG	-2.53960081087	14.74999344750
Djanet	Algeria	DZA	24.55290569970	9.48225296900
Djelfa	Algeria	DZA	34.67998781230	3.25002355817
Djenne	Mali	MLI	13.89999005020	-4.54999129375
Djibo	Burkina Faso	BFA	14.09900404090	-1.62700142072
Djibouti	Djibouti	DJI	11.59501446430	43.14800166710
Djougou	Benin	BEN	9.70042726535	1.68004186871
Dnipropetrovsk	Ukraine	UKR	48.47997235010	35.00002355830
Doba	Chad	TCD	8.65043967583	16.85002030300
Dobrich	Bulgaria	BGR	43.58505149240	27.83999548210
Doctor Pedro P. Pena	Argentina	ARG	-22.47998573930	-62.29998051110
Doctor Sobral	Indeterminate	ATA	-81.17908472280	-40.50153152060
Dodge City	United States	USA	37.76005820620	-100.01819502900
Dodoma	United Republic of Tanzania	TZA	-6.18330605177	35.75000362010
Doha	Qatar	QAT	25.28655600890	51.53296789430
Dolbeau	Canada	CAN	48.86658957830	-72.23332767910
Dolinsk	Russia	RUS	47.35042889310	142.80000687600
Dolo Bay	Ethiopia	ETH	4.18334800101	42.08331213250
Dolores	Argentina	ARG	-36.33004474000	-57.68997766280
Dombarovskiy	Russia	RUS	50.75458803210	59.54002437220
Dondo	Angola	AGO	-9.69001707066	14.43001297880
Dondo	Mozambique	MOZ	-19.61959185910	34.73001419960
Donegal	Ireland	IRL	54.65000917470	-8.11667281232
Donetsk	Ukraine	UKR	48.00000164700	37.82998001990
Dongguan	China	CHN	23.04888890000	113.74472220000
Dong Ha	Vietnam	VNM	16.84999810320	107.13330066100
Dong Hoi	Vietnam	VNM	17.48333721820	106.60004593800
Dongola	Sudan	SDN	19.16659364720	30.48329667030
Dori	Burkina Faso	BFA	14.03399709510	-0.02799851881
Dortmund	Germany	DEU	51.52996706040	7.45002559269
Dosso	Niger	NER	13.05001609190	3.20000077171
Dothan	United States	USA	31.22345460920	-85.39058659030
Douala	Cameroon	CMR	4.06040976859	9.70999100611
Douglas	United Kingdom	GBR	54.15042726550	-4.48002140443
Douglas	United States	USA	31.35864015610	-109.54836267300
Douglas	United States	USA	31.50777833970	-82.85068994320
Douglas	United States	USA	42.75647157700	-105.38453414100
Douliou	Taiwan	TWN	23.70750000000	120.54388888889
Dourados	Brazil	BRA	-22.23002683630	-54.80999841470
Dover	United Kingdom	GBR	51.13371217760	1.30001338563
Dover	United States	USA	39.15808656720	-75.52470300460
Drammen	Kingdom of Norway	NOR	59.75724265460	10.19073685570
Dresden	Germany	DEU	51.04997051910	13.75000280630
Drobeta-Turnu Severin	Romania	ROU	44.64589113270	22.66589269890
Drogheda	Ireland	IRL	53.71926495270	-6.34776269675
Drohobych	Ukraine	UKR	49.34436403310	23.49938187530
Drummondville	Canada	CAN	45.88333498030	-72.48336409680
Dryden	Canada	CAN	49.78332948720	-92.83333642760
Dubai	United Arab Emirates	ARE	25.22999615380	55.27997432340
Dubasari	Moldova	MDA	47.26305560000	29.16083330000
Dubbo	Australia	AUS	-32.25995725630	148.59732743200
Dublin	Ireland	IRL	53.33306113600	-6.24890568178
Dublin	United States	USA	32.53745709130	-82.91828271660
Dubrovnik	Croatia	HRV	42.66094769190	18.09139155950
Dubuque	United States	USA	42.50093161930	-90.66445072610
Dudinka	Russia	RUS	69.41820334800	86.22501053770
Duisburg	Germany	DEU	51.42997316400	6.75001664087
Duitama	Colombia	COL	5.83045676566	-73.02004968430
Dulan	China	CHN	36.16658957830	98.26660111390
Duluth	United States	USA	46.78333172510	-92.10637821630
Dumas	United States	USA	35.86239625960	-101.96688745300
Duma	Syria	SYR	33.58333640440	36.39998978550
Dumfries	United Kingdom	GBR	55.06708965970	-3.55000065247
Dumont d'Urville Station	Indeterminate	ATA	-66.77505091021	139.96368356279
Dumyat	Egypt	EGY	31.42039349270	31.82001094440
Dundalk	Ireland	IRL	54.00041058260	-6.41667321921
Dundee	United Kingdom	GBR	56.47038901680	-3.00000838359
Dundo	Angola	AGO	-7.38002887078	20.82998408880
Dund-Us	Mongolia	MNG	48.01664145820	91.63325923560
Dunedin	New Zealand	NZL	-45.87995278040	170.47997106900
Dunhua	China	CHN	43.35049216620	128.22001826900
Dunhuang	China	CHN	40.14267763170	94.66201493220
Duque de Caxias	Brazil	BRA	-22.76999387740	-43.30997684890
Durango	Mexico	MEX	24.03110292460	-104.67002995000
Durango	United States	USA	37.27564332990	-107.87998905600
Durazno	Uruguay	URY	-33.41001625700	-56.51004968430
Durban	South Africa	ZAF	-29.86501300170	30.98001053740
Durham	United States	USA	35.99995892240	-78.91999963550
Durres	Albania	ALB	41.31779970200	19.44820796580
Dushanbe	Tajikistan	TJK	38.56003521630	68.77387935270
Dusseldorf	Germany	DEU	51.22037355460	6.77998897159
Dutse	Nigeria	NGA	11.79918909520	9.35033460701
Dyatkovo	Russia	RUS	53.58914369620	34.33918534210
Dzaoudzi	French Republic	FRA	-12.78708901080	45.27500362020
Dzerzhinsk	Russia	RUS	56.25037660640	43.46002396520
Dzhankoy	Ukraine	UKR	45.71704022120	34.40000850300
Dzuunharaa	Mongolia	MNG	48.86658957830	106.46661739000
Dzuunmod	Mongolia	MNG	47.71099804940	106.94700064600
Eagle Pass	United States	USA	28.71102398580	-100.48927738600
Eagle	United States	USA	64.78799501460	-141.19999658400
East London	South Africa	ZAF	-32.97004311240	27.87001948930
Eastmain	Canada	CAN	52.23333498040	-78.51669091970
Eau Claire	United States	USA	44.81135906890	-91.49835331400
Ebebiyin	Gabon	GAB	2.15299799566	11.33000155600
Ebolowa	Cameroon	CMR	2.90001548147	11.15000646840
Echuca	Australia	AUS	-36.12959185920	144.75001704800
Ed Damazin	Sudan	SDN	11.77040427550	34.34998571650
EdDamer	Sudan	SDN	17.58997153620	33.95998368200
Ed Dueim	Sudan	SDN	13.99039796850	32.29998164750
Edea	Cameroon	CMR	3.80047731416	10.11999181990
Edinburgh	United Kingdom	GBR	55.94832785960	-3.21909061829
Edinburg	United States	USA	26.30318646140	-98.15996220070
Edirne	Turkey	TUR	41.67043967600	26.56999548210
Edmonton	Canada	CAN	53.55002463690	-113.49998193500
Edmundston	Canada	CAN	47.37941937160	-68.33328149580
Eger	Hungary	HUN	47.89500313620	20.38300257840
Egilsstadir	Iceland	ISL	65.26742311520	-14.39499760080
Egvekinot	Russia	RUS	66.32213165620	-179.18372246500
Eidsvold	Australia	AUS	-25.36621783570	151.13334834700
Eindhoven	Kingdom of the Netherlands	NLD	51.42997316400	5.50001542016
Eirunepe	Brazil	BRA	-6.66002113966	-69.87380761890
Eisenstadt	Austria	AUT	47.83329907870	16.53329746760
Ekibastuz	Kazakhstan	KAZ	51.72998069160	75.31993973680
El Agheila	Libya	LBY	30.25702781070	19.20000606150
El Alamein	Egypt	EGY	30.81707114560	28.94995357130
El Arish	Egypt	EGY	31.12488181460	33.80056188840
Elazig	Turkey	TUR	38.67997621570	39.22999792350
El Banco	Colombia	COL	9.00034079888	-73.98001692880
Elbasan	Albania	ALB	41.12150677390	20.08382808300
El Bayadh	Algeria	DZA	33.69035829570	1.00995357118
Elblag	Poland	POL	54.18995973620	19.40268102890
El Calafate	Argentina	ARG	-50.33332436250	-72.30001611500
El Carmen de Bolivar	Colombia	COL	9.72037436822	-75.12999841480
El Cayo	Belize	BLZ	17.15599807450	-89.06100252220
El Centro	United States	USA	32.79237693180	-115.55804752800
El Daba	Egypt	EGY	31.03377626450	28.43329260120
Eldama Ravine	Kenya	KEN	0.05037029917	35.72003128940
Eldikan	Russia	RUS	60.80002138180	135.18331416700
Eldorado	Argentina	ARG	-26.20001707070	-54.59998539390
Eldorado	Mexico	MEX	24.33046449690	-107.36999434600
El Dorado	United States	USA	33.21392742820	-92.66251998060
El Dorado	Venezuela	VEN	6.73329571424	-61.63332869630
Eldoret	Kenya	KEN	0.52000571584	35.26998124060
Elephant Island, South Shetland Islands	Indeterminate	ATA	-61.99958901100	-57.99998458010
El Faiyum	Egypt	EGY	29.31003135070	30.83996740590
El Fasher	Sudan	SDN	13.62998069150	25.35001826850
El Fuerte	Mexico	MEX	26.42041444800	-108.61999556700
